city,state_id,state_name,lat,lng,id
New York,NY,New York,40.6943,-73.9249,1840034016
Los Angeles,CA,California,34.1139,-118.4068,1840020491
Chicago,IL,Illinois,41.8373,-87.6862,1840000494
Miami,FL,Florida,25.7839,-80.2102,1840015149
Dallas,TX,Texas,32.7936,-96.7662,1840019440
Philadelphia,PA,Pennsylvania,40.0077,-75.1339,1840000673
Houston,TX,Texas,29.7863,-95.3889,1840020925
Atlanta,GA,Georgia,33.7627,-84.4224,1840013660
Washington,DC,District of Columbia,38.9047,-77.0163,1840006060
Boston,MA,Massachusetts,42.3188,-71.0846,1840000455
Phoenix,AZ,Arizona,33.5722,-112.0891,1840020568
Seattle,WA,Washington,47.6211,-122.3244,1840021117
San Francisco,CA,California,37.7562,-122.443,1840021543
Detroit,MI,Michigan,42.3834,-83.1024,1840003971
San Diego,CA,California,32.8312,-117.1225,1840021990
Minneapolis,MN,Minnesota,44.9635,-93.2678,1840007830
Tampa,FL,Florida,27.9942,-82.4451,1840015982
Denver,CO,Colorado,39.7621,-104.8759,1840018789
Brooklyn,NY,New York,40.6501,-73.9496,1840034030
Queens,NY,New York,40.7498,-73.7976,1840034002
Riverside,CA,California,33.9381,-117.3948,1840020551
Baltimore,MD,Maryland,39.3051,-76.6144,1840001592
Las Vegas,NV,Nevada,36.2333,-115.2654,1840020364
Portland,OR,Oregon,45.5372,-122.65,1840019941
San Antonio,TX,Texas,29.4658,-98.5253,1840022220
St. Louis,MO,Missouri,38.6358,-90.2451,1840001651
Sacramento,CA,California,38.5667,-121.4683,1840021491
Orlando,FL,Florida,28.4772,-81.3369,1840015099
San Jose,CA,California,37.3019,-121.8486,1840021570
Cleveland,OH,Ohio,41.4767,-81.6804,1840000596
Pittsburgh,PA,Pennsylvania,40.4396,-79.9762,1840001254
Austin,TX,Texas,30.3004,-97.7522,1840019590
Cincinnati,OH,Ohio,39.1413,-84.5061,1840003814
Kansas City,MO,Missouri,39.1239,-94.5541,1840008535
Manhattan,NY,New York,40.7834,-73.9662,1840034000
Indianapolis,IN,Indiana,39.7771,-86.1458,1840030084
Columbus,OH,Ohio,39.9862,-82.985,1840003760
Charlotte,NC,North Carolina,35.208,-80.8304,1840014557
Virginia Beach,VA,Virginia,36.7335,-76.0435,1840003871
Bronx,NY,New York,40.8501,-73.8662,1840033999
Milwaukee,WI,Wisconsin,43.0642,-87.9673,1840003046
Providence,RI,Rhode Island,41.823,-71.4187,1840003289
Jacksonville,FL,Florida,30.3322,-81.6749,1840015031
Salt Lake City,UT,Utah,40.7777,-111.9306,1840021383
Nashville,TN,Tennessee,36.1715,-86.7843,1840036155
Richmond,VA,Virginia,37.5295,-77.4756,1840001698
Memphis,TN,Tennessee,35.1046,-89.9773,1840015457
Raleigh,NC,North Carolina,35.8325,-78.6435,1840014497
New Orleans,LA,Louisiana,30.0687,-89.9288,1840001839
Louisville,KY,Kentucky,38.1663,-85.6485,1840030815
Oklahoma City,OK,Oklahoma,35.4676,-97.5136,1840020428
Bridgeport,CT,Connecticut,41.1918,-73.1953,1840004836
Buffalo,NY,New York,42.9016,-78.8487,1840000386
Fort Worth,TX,Texas,32.7811,-97.3473,1840020696
Hartford,CT,Connecticut,41.7661,-72.6834,1840004773
Tucson,AZ,Arizona,32.1545,-110.8782,1840022101
Omaha,NE,Nebraska,41.2627,-96.0522,1840009315
El Paso,TX,Texas,31.8479,-106.4309,1840023252
McAllen,TX,Texas,26.2273,-98.2471,1840021024
Albuquerque,NM,New Mexico,35.1053,-106.6464,1840019176
Birmingham,AL,Alabama,33.5277,-86.7987,1840006507
Sarasota,FL,Florida,27.3386,-82.5431,1840015988
Dayton,OH,Ohio,39.7797,-84.1998,1840034249
Rochester,NY,New York,43.168,-77.6162,1840000373
Fresno,CA,California,36.7831,-119.7941,1840020319
Allentown,PA,Pennsylvania,40.5961,-75.4756,1840001044
Tulsa,OK,Oklahoma,36.1284,-95.9042,1840021672
Cape Coral,FL,Florida,26.6446,-81.9956,1840015130
Concord,CA,California,37.9722,-122.0016,1840018905
Colorado Springs,CO,Colorado,38.8674,-104.7606,1840018825
Charleston,SC,South Carolina,32.8153,-79.9628,1840015163
Springfield,MA,Massachusetts,42.1155,-72.5395,1840000466
Grand Rapids,MI,Michigan,42.962,-85.6562,1840002928
Mission Viejo,CA,California,33.6095,-117.655,1840020580
Albany,NY,New York,42.6664,-73.7987,1840000417
Knoxville,TN,Tennessee,35.9692,-83.9496,1840014486
Bakersfield,CA,California,35.3529,-119.0359,1840019148
Ogden,UT,Utah,41.2278,-111.9682,1840020135
Baton Rouge,LA,Louisiana,30.4418,-91.131,1840013941
Akron,OH,Ohio,41.0798,-81.5219,1840000791
New Haven,CT,Connecticut,41.3112,-72.9246,1840004850
Columbia,SC,South Carolina,34.0376,-80.9037,1840014730
Mesa,AZ,Arizona,33.4017,-111.718,1840020566
Palm Bay,FL,Florida,27.955,-80.6627,1840015094
Provo,UT,Utah,40.2457,-111.6457,1840020174
Worcester,MA,Massachusetts,42.2705,-71.8079,1840000434
Murrieta,CA,California,33.572,-117.1909,1840020553
Greenville,SC,South Carolina,34.8353,-82.3647,1840013501
Wichita,KS,Kansas,37.6896,-97.3442,1840001686
Toledo,OH,Ohio,41.6639,-83.5822,1840000572
Staten Island,NY,New York,40.5834,-74.1496,1840034032
Des Moines,IA,Iowa,41.5725,-93.6105,1840007069
Long Beach,CA,California,33.7981,-118.1675,1840020490
Port St. Lucie,FL,Florida,27.2796,-80.3883,1840015119
Denton,TX,Texas,33.2176,-97.1419,1840019390
Madison,WI,Wisconsin,43.0826,-89.3931,1840002915
Reno,NV,Nevada,39.5497,-119.8483,1840020121
Harrisburg,PA,Pennsylvania,40.2752,-76.8843,1840001288
Little Rock,AR,Arkansas,34.7256,-92.3576,1840015509
Oakland,CA,California,37.7903,-122.2165,1840020296
Durham,NC,North Carolina,35.9794,-78.9031,1840013364
Winston-Salem,NC,North Carolina,36.1029,-80.2611,1840015324
Bonita Springs,FL,Florida,26.3559,-81.7861,1840014227
Indio,CA,California,33.7346,-116.2346,1840019304
Palm Coast,FL,Florida,29.5392,-81.246,1840015064
Chattanooga,TN,Tennessee,35.0657,-85.2488,1840014569
Spokane,WA,Washington,47.6671,-117.433,1840021093
Syracuse,NY,New York,43.0409,-76.1438,1840000378
Lancaster,PA,Pennsylvania,40.0421,-76.3012,1840003718
Arlington,TX,Texas,32.6998,-97.125,1840019422
Stockton,CA,California,37.9765,-121.3109,1840021517
Poughkeepsie,NY,New York,41.6949,-73.921,1840000500
Augusta,GA,Georgia,33.3645,-82.0708,1840029462
Boise,ID,Idaho,43.6007,-116.2312,1840027142
Oxnard,CA,California,34.1963,-119.1815,1840020474
Scranton,PA,Pennsylvania,41.4044,-75.6649,1840003389
Modesto,CA,California,37.6374,-121.0028,1840020287
Kissimmee,FL,Florida,28.3042,-81.4164,1840015109
Aurora,CO,Colorado,39.7087,-104.7273,1840018794
Youngstown,OH,Ohio,41.0993,-80.6463,1840003563
Fayetteville,AR,Arkansas,36.0713,-94.166,1840013368
Anaheim,CA,California,33.839,-117.8572,1840019322
Pensacola,FL,Florida,30.4427,-87.1886,1840015005
Victorville,CA,California,34.5277,-117.3536,1840021731
Lancaster,CA,California,34.6935,-118.1753,1840020516
Greensboro,NC,North Carolina,36.0956,-79.8269,1840013356
Corpus Christi,TX,Texas,27.726,-97.3755,1840019718
Fort Wayne,IN,Indiana,41.0886,-85.1437,1840008261
Santa Ana,CA,California,33.7366,-117.8819,1840021964
Flint,MI,Michigan,43.0235,-83.6922,1840002949
Fayetteville,NC,North Carolina,35.0846,-78.9776,1840013490
Jackson,MS,Mississippi,32.3163,-90.2124,1840014895
Santa Rosa,CA,California,38.4458,-122.7067,1840021488
Lansing,MI,Michigan,42.7142,-84.5601,1840003102
Lexington,KY,Kentucky,38.0423,-84.4587,1840015211
Ann Arbor,MI,Michigan,42.2755,-83.7312,1840003172
Henderson,NV,Nevada,36.0133,-115.038,1840020361
Huntsville,AL,Alabama,34.6988,-86.6412,1840005061
Mobile,AL,Alabama,30.6783,-88.1162,1840006009
Fort Collins,CO,Colorado,40.5478,-105.0656,1840020151
Asheville,NC,North Carolina,35.5704,-82.5536,1840013411
Santa Clarita,CA,California,34.4175,-118.4964,1840021864
St. Paul,MN,Minnesota,44.9477,-93.104,1840008940
Antioch,CA,California,37.9789,-121.7958,1840018903
Lakeland,FL,Florida,28.0556,-81.9545,1840015108
Trenton,NJ,New Jersey,40.2236,-74.7641,1840001383
Lincoln,NE,Nebraska,40.809,-96.6788,1840009357
Springfield,MO,Missouri,37.1943,-93.2916,1840009904
Plano,TX,Texas,33.0502,-96.7487,1840020662
Irvine,CA,California,33.6772,-117.7738,1840019325
Davenport,IA,Iowa,41.5563,-90.6052,1840007081
Rockford,IL,Illinois,42.2597,-89.0641,1840009132
Newark,NJ,New Jersey,40.7245,-74.1725,1840002791
South Bend,IN,Indiana,41.6767,-86.2696,1840009241
Shreveport,LA,Louisiana,32.4656,-93.7956,1840015768
Round Lake Beach,IL,Illinois,42.379,-88.0811,1840011171
Savannah,GA,Georgia,32.0281,-81.1784,1840015830
Myrtle Beach,SC,South Carolina,33.7096,-78.8843,1840014717
Chula Vista,CA,California,32.6281,-117.0145,1840019350
Eugene,OR,Oregon,44.0563,-123.1173,1840020007
Canton,OH,Ohio,40.8075,-81.3677,1840000963
Lubbock,TX,Texas,33.5659,-101.8878,1840020604
Reading,PA,Pennsylvania,40.34,-75.9267,1840001185
Winter Haven,FL,Florida,28.0118,-81.7017,1840015970
Salem,OR,Oregon,44.9231,-123.0246,1840021224
St. Petersburg,FL,Florida,27.7931,-82.6652,1840015977
Lafayette,LA,Louisiana,30.2084,-92.0323,1840015044
Laredo,TX,Texas,27.5629,-99.4875,1840021002
Jersey City,NJ,New Jersey,40.7161,-74.0682,1840003600
Concord,NC,North Carolina,35.3933,-80.6366,1840014559
Columbus,GA,Georgia,32.51,-84.8771,1840014887
Chandler,AZ,Arizona,33.2826,-111.8516,1840019309
McKinney,TX,Texas,33.2015,-96.6669,1840020657
Scottsdale,AZ,Arizona,33.6872,-111.8651,1840021940
Killeen,TX,Texas,31.0754,-97.7296,1840020854
Tallahassee,FL,Florida,30.4551,-84.2526,1840015913
Peoria,IL,Illinois,40.752,-89.6153,1840009373
Wilmington,NC,North Carolina,34.21,-77.8866,1840015576
Montgomery,AL,Alabama,32.3473,-86.2666,1840008353
Gilbert,AZ,Arizona,33.3101,-111.7463,1840021947
Glendale,AZ,Arizona,33.5791,-112.2311,1840020563
North Las Vegas,NV,Nevada,36.288,-115.0901,1840020363
Chesapeake,VA,Virginia,36.6778,-76.3024,1840003874
Barnstable,MA,Massachusetts,41.6722,-70.3599,1840031233
Norfolk,VA,Virginia,36.8945,-76.259,1840003869
Fremont,CA,California,37.5265,-121.9852,1840020292
Kennewick,WA,Washington,46.1978,-119.1732,1840018481
Garland,TX,Texas,32.91,-96.6305,1840020707
Irving,TX,Texas,32.8584,-96.9702,1840019438
Visalia,CA,California,36.3276,-119.3269,1840021639
Atlantic City,NJ,New Jersey,39.3797,-74.4527,1840003798
Paradise,NV,Nevada,36.0807,-115.1369,1840033743
Nashua,NH,New Hampshire,42.7491,-71.491,1840002984
Arlington,VA,Virginia,38.8786,-77.1011,1840006112
Hialeah,FL,Florida,25.8696,-80.3046,1840015157
York,PA,Pennsylvania,39.9651,-76.7315,1840001472
Evansville,IN,Indiana,37.9881,-87.5341,1840013730
Avondale,AZ,Arizona,33.3858,-112.3236,1840019310
Brownsville,TX,Texas,25.998,-97.4565,1840019743
Gulfport,MS,Mississippi,30.4271,-89.0703,1840013947
Appleton,WI,Wisconsin,44.2779,-88.3891,1840002400
Bremerton,WA,Washington,47.5436,-122.7122,1840018410
Hickory,NC,North Carolina,35.7425,-81.323,1840014524
Tacoma,WA,Washington,47.2431,-122.4531,1840021129
San Bernardino,CA,California,34.1417,-117.2946,1840021728
College Station,TX,Texas,30.5852,-96.296,1840019570
Kalamazoo,MI,Michigan,42.2749,-85.5882,1840003185
Thousand Oaks,CA,California,34.1914,-118.8755,1840021844
Roanoke,VA,Virginia,37.2785,-79.958,1840003858
Fontana,CA,California,34.0968,-117.4599,1840020402
Moreno Valley,CA,California,33.9244,-117.2045,1840020552
North Port,FL,Florida,27.0577,-82.1975,1840015120
Fargo,ND,North Dakota,46.8652,-96.8292,1840000177
Green Bay,WI,Wisconsin,44.515,-87.9896,1840002344
Spring Valley,NV,Nevada,36.0987,-115.2619,1840033832
Amarillo,TX,Texas,35.1988,-101.8311,1840019156
Portland,ME,Maine,43.6773,-70.2715,1840000327
Santa Barbara,CA,California,34.4285,-119.7202,1840021829
Gainesville,FL,Florida,29.6804,-82.3458,1840014022
Olympia,WA,Washington,47.0417,-122.8959,1840019865
Frisco,TX,Texas,33.1555,-96.8215,1840020654
Yonkers,NY,New York,40.9466,-73.8674,1840003478
Norwich,CT,Connecticut,41.5495,-72.0882,1840004828
Glendale,CA,California,34.1818,-118.2468,1840020483
Huntington Beach,CA,California,33.696,-118.0025,1840020578
Deltona,FL,Florida,28.905,-81.2137,1840015072
Aurora,IL,Illinois,41.7637,-88.2901,1840007034
Tempe,AZ,Arizona,33.3881,-111.9318,1840021942
Overland Park,KS,Kansas,38.887,-94.687,1840003834
Grand Prairie,TX,Texas,32.6872,-97.0209,1840020709
Sunrise Manor,NV,Nevada,36.1785,-115.049,1840033833
Waco,TX,Texas,31.5598,-97.1881,1840022140
Salinas,CA,California,36.6884,-121.6317,1840021632
Waterbury,CT,Connecticut,41.5583,-73.0361,1840004851
Clarksville,TN,Tennessee,36.5695,-87.342,1840014421
Cedar Rapids,IA,Iowa,41.9665,-91.6782,1840000471
Sioux Falls,SD,South Dakota,43.5397,-96.732,1840002648
Huntington,WV,West Virginia,38.4109,-82.4344,1840006211
Ontario,CA,California,34.0393,-117.6064,1840020410
Hagerstown,MD,Maryland,39.6401,-77.7217,1840005613
Erie,PA,Pennsylvania,42.1168,-80.0733,1840000478
Vancouver,WA,Washington,45.6366,-122.5967,1840021189
Nampa,ID,Idaho,43.5845,-116.5631,1840020041
Spartanburg,SC,South Carolina,34.9437,-81.9257,1840015482
Gastonia,NC,North Carolina,35.2494,-81.1853,1840013468
Fort Lauderdale,FL,Florida,26.1412,-80.1464,1840014236
Lorain,OH,Ohio,41.4409,-82.184,1840000644
Murfreesboro,TN,Tennessee,35.8492,-86.4119,1840014495
High Point,NC,North Carolina,35.9907,-79.9938,1840014479
Newport News,VA,Virginia,37.1051,-76.5185,1840003862
Rancho Cucamonga,CA,California,34.1248,-117.5666,1840020411
Hemet,CA,California,33.7341,-116.9969,1840020550
Santa Cruz,CA,California,36.9789,-122.0346,1840021579
Danbury,CT,Connecticut,41.4016,-73.471,1840004837
Peoria,AZ,Arizona,33.7844,-112.2989,1840020567
Oceanside,CA,California,33.2247,-117.3083,1840020623
Elk Grove,CA,California,38.416,-121.3842,1840020245
Pembroke Pines,FL,Florida,26.0128,-80.3382,1840015141
Vallejo,CA,California,38.1133,-122.2358,1840021499
Garden Grove,CA,California,33.7787,-117.9601,1840020577
Enterprise,NV,Nevada,36.0164,-115.2208,1840033827
Medford,OR,Oregon,42.3372,-122.8537,1840020076
Cary,NC,North Carolina,35.782,-78.8191,1840016196
Marysville,WA,Washington,48.0809,-122.1561,1840019789
Corona,CA,California,33.8616,-117.5649,1840019305
Ocala,FL,Florida,29.178,-82.1511,1840015067
Fredericksburg,VA,Virginia,38.2992,-77.4872,1840003845
Gainesville,GA,Georgia,34.2903,-83.8301,1840013612
Manchester,NH,New Hampshire,42.9848,-71.4447,1840002983
Champaign,IL,Illinois,40.1144,-88.2735,1840007239
Alexandria,VA,Virginia,38.8185,-77.0861,1840003837
Hayward,CA,California,37.6328,-122.0772,1840020293
Springfield,IL,Illinois,39.771,-89.6538,1840009517
Lakewood,CO,Colorado,39.6977,-105.1168,1840020198
Lafayette,IN,Indiana,40.399,-86.8594,1840008354
Frederick,MD,Maryland,39.4336,-77.4141,1840005710
Lake Charles,LA,Louisiana,30.2012,-93.2122,1840015039
Odessa,TX,Texas,31.8831,-102.3406,1840020794
Tuscaloosa,AL,Alabama,33.2348,-87.5267,1840005563
Warner Robins,GA,Georgia,32.597,-83.6529,1840015800
Palmdale,CA,California,34.5944,-118.1057,1840020502
Hollywood,FL,Florida,26.0294,-80.1679,1840015144
Midland,TX,Texas,32.0249,-102.1137,1840020792
Leesburg,FL,Florida,28.7657,-81.8996,1840015083
Port Arthur,TX,Texas,29.8554,-93.9264,1840020919
Muskegon,MI,Michigan,43.2281,-86.2563,1840002870
Macon,GA,Georgia,32.8065,-83.6974,1840043455
Kansas City,KS,Kansas,39.1234,-94.7443,1840001626
Sunnyvale,CA,California,37.3836,-122.0256,1840021573
Pomona,CA,California,34.0585,-117.7626,1840020507
Escondido,CA,California,33.1347,-117.0722,1840020620
Pasadena,TX,Texas,29.6583,-95.1499,1840020930
New Bedford,MA,Massachusetts,41.6697,-70.9428,1840003219
Fairfield,CA,California,38.2592,-122.0324,1840020253
Naperville,IL,Illinois,41.7483,-88.1657,1840008143
Bellevue,WA,Washington,47.5951,-122.1535,1840018417
Binghamton,NY,New York,42.1014,-75.9093,1840000460
Elkhart,IN,Indiana,41.6916,-85.9628,1840008187
Topeka,KS,Kansas,39.0346,-95.6955,1840001621
Joliet,IL,Illinois,41.5189,-88.1499,1840008192
Beaumont,TX,Texas,30.0849,-94.1451,1840019612
Paterson,NJ,New Jersey,40.9147,-74.1624,1840000838
Merced,CA,California,37.3057,-120.4778,1840020313
Pueblo,CO,Colorado,38.2705,-104.6112,1840020255
Tyler,TX,Texas,32.3184,-95.3062,1840022076
Torrance,CA,California,33.8346,-118.3417,1840021873
Yuma,AZ,Arizona,32.5992,-114.5488,1840021998
Metairie,LA,Louisiana,29.9977,-90.178,1840013994
Surprise,AZ,Arizona,33.68,-112.4524,1840021941
Columbia,MO,Missouri,38.9478,-92.3256,1840007391
Athens,GA,Georgia,33.9508,-83.3689,1840029463
Roseville,CA,California,38.7703,-121.3196,1840020233
Thornton,CO,Colorado,39.9197,-104.9438,1840021422
Miramar,FL,Florida,25.9773,-80.3351,1840015137
Pasadena,CA,California,34.1597,-118.139,1840020505
Mesquite,TX,Texas,32.7623,-96.5889,1840020713
Olathe,KS,Kansas,38.8832,-94.8198,1840003833
Santa Maria,CA,California,34.9334,-120.4432,1840021830
Houma,LA,Louisiana,29.5799,-90.7058,1840015063
Carrollton,TX,Texas,32.989,-96.8999,1840019436
Grand Junction,CO,Colorado,39.0876,-108.5673,1840020230
Charleston,WV,West Virginia,38.3484,-81.6323,1840006196
Orange,CA,California,33.8038,-117.8218,1840020582
Fullerton,CA,California,33.8841,-117.9279,1840020576
Greeley,CO,Colorado,40.4151,-104.7706,1840020149
Las Cruces,NM,New Mexico,32.3265,-106.7892,1840020683
Panama City,FL,Florida,30.1995,-85.6004,1840015034
Harlingen,TX,Texas,26.1917,-97.6976,1840021036
West Valley City,UT,Utah,40.6889,-112.0115,1840021389
Hampton,VA,Virginia,37.0551,-76.363,1840003866
Warren,MI,Michigan,42.4934,-83.027,1840002418
Mauldin,SC,South Carolina,34.7849,-82.3005,1840015476
Bloomington,IL,Illinois,40.4757,-88.9703,1840007207
Coral Springs,FL,Florida,26.2702,-80.2591,1840015134
Round Rock,TX,Texas,30.5254,-97.666,1840020879
Yakima,WA,Washington,46.5923,-120.5496,1840021154
Sterling Heights,MI,Michigan,42.5809,-83.0305,1840003094
Kent,WA,Washington,47.3887,-122.2129,1840018424
Burlington,NC,North Carolina,36.0758,-79.4686,1840013362
Bellingham,WA,Washington,48.7543,-122.4687,1840018346
Santa Clara,CA,California,37.3645,-121.968,1840021571
Racine,WI,Wisconsin,42.7274,-87.8135,1840002493
Greenville,NC,North Carolina,35.5956,-77.3768,1840013407
Stamford,CT,Connecticut,41.1035,-73.5583,1840004841
Elizabeth,NJ,New Jersey,40.6657,-74.1912,1840003613
Johnson City,TN,Tennessee,36.3406,-82.3803,1840014462
Lynchburg,VA,Virginia,37.4003,-79.1909,1840003855
Simi Valley,CA,California,34.2663,-118.749,1840021843
Fort Smith,AR,Arkansas,35.3493,-94.3695,1840013456
Kenosha,WI,Wisconsin,42.5864,-87.8765,1840003160
Norman,OK,Oklahoma,35.2335,-97.3471,1840020451
South Lyon,MI,Michigan,42.4614,-83.6526,1840002432
Boulder,CO,Colorado,40.0249,-105.2523,1840018774
Abilene,TX,Texas,32.4543,-99.7384,1840019476
Lehigh Acres,FL,Florida,26.612,-81.6388,1840014220
Pearland,TX,Texas,29.5585,-95.3215,1840020979
Berkeley,CA,California,37.8723,-122.276,1840018914
Richardson,TX,Texas,32.9717,-96.7093,1840020710
Redding,CA,California,40.5698,-122.365,1840020141
Arvada,CO,Colorado,39.8321,-105.1511,1840018788
East Los Angeles,CA,California,34.0326,-118.1691,1840019206
St. George,UT,Utah,37.077,-113.577,1840021559
Billings,MT,Montana,45.7891,-108.5524,1840018496
Yuba City,CA,California,39.1357,-121.6381,1840021463
Rochester,MN,Minnesota,44.0151,-92.4778,1840008987
Leominster,MA,Massachusetts,42.5209,-71.7717,1840000437
Kingsport,TN,Tennessee,36.5224,-82.5453,1840014425
Duluth,MN,Minnesota,46.7756,-92.1392,1840007685
Rock Hill,SC,South Carolina,34.9416,-81.0244,1840014618
Gilroy,CA,California,37.0047,-121.5855,1840020327
Cambridge,MA,Massachusetts,42.3759,-71.1185,1840000429
Sugar Land,TX,Texas,29.5935,-95.6357,1840022217
Texas City,TX,Texas,29.4128,-94.9658,1840022234
Iowa City,IA,Iowa,41.6559,-91.5303,1840000532
Saginaw,MI,Michigan,43.4199,-83.9501,1840002813
Chico,CA,California,39.7575,-121.8152,1840018778
Dover,DE,Delaware,39.161,-75.5203,1840005810
Clearwater,FL,Florida,27.9789,-82.7622,1840015110
Coeur d'Alene,ID,Idaho,47.7041,-116.7935,1840018402
Seaside,CA,California,36.6224,-121.8191,1840021634
Independence,MO,Missouri,39.0871,-94.3501,1840008534
West Jordan,UT,Utah,40.6024,-112.0008,1840021388
Brandon,FL,Florida,27.9367,-82.3,1840014151
Bloomington,IN,Indiana,39.1637,-86.5257,1840007376
El Monte,CA,California,34.0739,-118.0291,1840020480
North Charleston,SC,South Carolina,32.9066,-80.0722,1840015164
Carlsbad,CA,California,33.1247,-117.2837,1840019352
St. Cloud,MN,Minnesota,45.5339,-94.1718,1840008881
Temecula,CA,California,33.4928,-117.1315,1840021937
Clovis,CA,California,36.8278,-119.6831,1840018944
Meridian,ID,Idaho,43.6112,-116.3968,1840020046
The Woodlands,TX,Texas,30.1738,-95.5134,1840019585
Westminster,CO,Colorado,39.8837,-105.0624,1840021423
Costa Mesa,CA,California,33.6667,-117.9135,1840019326
Monroe,LA,Louisiana,32.5183,-92.0774,1840014881
Utica,NY,New York,43.0961,-75.226,1840002746
Pompano Beach,FL,Florida,26.2428,-80.1312,1840015143
West Palm Beach,FL,Florida,26.7468,-80.1316,1840015993
Waterloo,IA,Iowa,42.492,-92.3522,1840000440
Everett,WA,Washington,47.9525,-122.1669,1840019785
El Centro,CA,California,32.7867,-115.5586,1840020630
Santa Fe,NM,New Mexico,35.6619,-105.9819,1840021707
Downey,CA,California,33.9379,-118.1312,1840019245
Spring Hill,FL,Florida,28.4797,-82.53,1840014105
Lowell,MA,Massachusetts,42.6389,-71.3217,1840000426
Centennial,CO,Colorado,39.5926,-104.8674,1840018792
Elgin,IL,Illinois,42.0385,-88.3229,1840008134
Richmond,CA,California,37.9477,-122.339,1840020277
Broken Arrow,OK,Oklahoma,36.0365,-95.7809,1840019059
Miami Gardens,FL,Florida,25.9433,-80.2426,1840015151
Bend,OR,Oregon,44.0562,-121.3087,1840018618
Burlington,VT,Vermont,44.4877,-73.2314,1840002310
Jurupa Valley,CA,California,34.001,-117.4705,1840043419
Sandy Springs,GA,Georgia,33.9366,-84.3703,1840015609
Gresham,OR,Oregon,45.5023,-122.4413,1840019939
Lewisville,TX,Texas,33.0452,-96.9823,1840020639
Hillsboro,OR,Oregon,45.5272,-122.9361,1840019932
San Buenaventura,CA,California,34.2741,-119.2314,1840037414
Jacksonville,NC,North Carolina,34.7288,-77.3941,1840014653
Pottstown,PA,Pennsylvania,40.2507,-75.6444,1840001373
Inglewood,CA,California,33.9566,-118.3444,1840019237
League City,TX,Texas,29.4873,-95.1087,1840020973
Eau Claire,WI,Wisconsin,44.8199,-91.4949,1840002296
Turlock,CA,California,37.5053,-120.8588,1840021533
Temple,TX,Texas,31.1076,-97.3894,1840022154
Sioux City,IA,Iowa,42.4959,-96.3901,1840000447
Salisbury,MD,Maryland,38.3756,-75.5867,1840006219
Davie,FL,Florida,26.0789,-80.287,1840017272
Daly City,CA,California,37.6862,-122.4685,1840018926
Highlands Ranch,CO,Colorado,39.5419,-104.9708,1840028579
Allen,TX,Texas,33.1088,-96.6735,1840019396
West Covina,CA,California,34.0555,-117.9112,1840021876
Sparks,NV,Nevada,39.5729,-119.7157,1840021337
Wichita Falls,TX,Texas,33.9072,-98.5291,1840021923
San Mateo,CA,California,37.5521,-122.3122,1840021551
Columbia,MD,Maryland,39.2004,-76.859,1840005803
Norwalk,CA,California,33.9069,-118.0829,1840020501
Rialto,CA,California,34.1174,-117.3894,1840020407
Manteca,CA,California,37.7927,-121.2264,1840020265
Arden-Arcade,CA,California,38.6034,-121.381,1840036690
El Cajon,CA,California,32.8017,-116.9605,1840020618
Burbank,CA,California,34.1879,-118.3235,1840019233
Longmont,CO,Colorado,40.1686,-105.1005,1840020178
Renton,WA,Washington,47.4784,-122.1919,1840019827
Vista,CA,California,33.1896,-117.2386,1840021994
Logan,UT,Utah,41.74,-111.8419,1840020108
Prescott Valley,AZ,Arizona,34.5983,-112.3176,1840021772
Vacaville,CA,California,38.359,-121.968,1840021498
Edinburg,TX,Texas,26.3197,-98.1596,1840021020
Carmel,IN,Indiana,39.965,-86.146,1840007260
Spokane Valley,WA,Washington,47.6626,-117.2346,1840021094
San Angelo,TX,Texas,31.4424,-100.4506,1840022146
La Crosse,WI,Wisconsin,43.824,-91.2268,1840002577
Idaho Falls,ID,Idaho,43.4872,-112.0362,1840018644
Holland,MI,Michigan,42.7677,-86.0985,1840002996
Charlottesville,VA,Virginia,38.0375,-78.4855,1840001678
Longview,TX,Texas,32.5193,-94.7621,1840020746
Tracy,CA,California,37.7269,-121.4522,1840021518
Boca Raton,FL,Florida,26.3752,-80.108,1840014207
Lafayette,CO,Colorado,39.9949,-105.0997,1840020180
Lee's Summit,MO,Missouri,38.9172,-94.3816,1840032155
Rio Rancho,NM,New Mexico,35.2872,-106.6981,1840020387
South Fulton,GA,Georgia,33.6269,-84.5802,1840029465
Beaverton,OR,Oregon,45.4779,-122.8168,1840018556
Lawrence,KS,Kansas,38.9597,-95.2641,1840001632
Bismarck,ND,North Dakota,46.8144,-100.7694,1840001926
Orem,UT,Utah,40.2983,-111.6992,1840020171
Middletown,OH,Ohio,39.5032,-84.366,1840003804
San Tan Valley,AZ,Arizona,33.1879,-111.5472,1840027990
San Marcos,CA,California,33.135,-117.1744,1840021991
Sandy,UT,Utah,40.571,-111.8505,1840037422
Federal Way,WA,Washington,47.3091,-122.3358,1840019826
Mandeville,LA,Louisiana,30.3751,-90.0904,1840015909
Hesperia,CA,California,34.3975,-117.3147,1840020404
Brockton,MA,Massachusetts,42.0821,-71.0242,1840000467
Compton,CA,California,33.893,-118.2275,1840019240
Riverview,FL,Florida,27.8227,-82.3023,1840014158
Fishers,IN,Indiana,39.9589,-85.9661,1840010496
Sunrise,FL,Florida,26.1547,-80.2997,1840016000
Bowling Green,KY,Kentucky,36.9719,-86.4373,1840013265
Roswell,GA,Georgia,34.0391,-84.3513,1840014741
Menifee,CA,California,33.6909,-117.1849,1840022903
Plantation,FL,Florida,26.126,-80.2617,1840015142
Dover,NH,New Hampshire,43.1887,-70.8845,1840002808
Quincy,MA,Massachusetts,42.2516,-71.0183,1840000461
Portsmouth,VA,Virginia,36.8468,-76.354,1840003872
Chino,CA,California,33.9836,-117.6654,1840019114
Lynn,MA,Massachusetts,42.4779,-70.9663,1840000409
Edmond,OK,Oklahoma,35.6689,-97.4159,1840020423
Hanford,CA,California,36.3274,-119.6549,1840020382
Dearborn,MI,Michigan,42.3127,-83.2129,1840003969
Livonia,MI,Michigan,42.3972,-83.3733,1840003985
South Gate,CA,California,33.9448,-118.1926,1840021870
Vineland,NJ,New Jersey,39.4653,-74.9981,1840001551
Florence,SC,South Carolina,34.1781,-79.7877,1840013643
Portsmouth,NH,New Hampshire,43.058,-70.7826,1840002932
Slidell,LA,Louisiana,30.2881,-89.7826,1840015911
Lawton,OK,Oklahoma,34.6176,-98.4203,1840020477
Kirkland,WA,Washington,47.6974,-122.2054,1840019836
Missoula,MT,Montana,46.875,-114.0214,1840019840
Auburn,AL,Alabama,32.6087,-85.4899,1840013810
Rapid City,SD,South Dakota,44.0716,-103.2204,1840002180
Terre Haute,IN,Indiana,39.4654,-87.3763,1840009671
Suffolk,VA,Virginia,36.6953,-76.6398,1840003873
Blacksburg,VA,Virginia,37.23,-80.4279,1840006446
Mount Pleasant,SC,South Carolina,32.8538,-79.8204,1840017286
Carson,CA,California,33.8374,-118.2559,1840019214
Conroe,TX,Texas,30.3239,-95.4825,1840019586
Alafaya,FL,Florida,28.5278,-81.1865,1840029102
Livermore,CA,California,37.6862,-121.7608,1840020294
Westminster,CA,California,33.7523,-117.9938,1840021969
Germantown,MD,Maryland,39.1755,-77.2643,1840005840
Santa Monica,CA,California,34.0232,-118.4813,1840021866
New Braunfels,TX,Texas,29.6994,-98.1148,1840021341
Fall River,MA,Massachusetts,41.7137,-71.1014,1840000497
Albany,GA,Georgia,31.5776,-84.1762,1840013864
Miami Beach,FL,Florida,25.8171,-80.1396,1840015150
Norwalk,CT,Connecticut,41.1144,-73.4215,1840004839
San Leandro,CA,California,37.7071,-122.1601,1840021538
O'Fallon,MO,Missouri,38.785,-90.7175,1840008571
Newton,MA,Massachusetts,42.3316,-71.2085,1840000433
Muncie,IN,Indiana,40.1989,-85.395,1840008365
Citrus Heights,CA,California,38.6948,-121.288,1840018845
State College,PA,Pennsylvania,40.7909,-77.8568,1840000830
Town 'n' Country,FL,Florida,28.0108,-82.576,1840029089
Decatur,IL,Illinois,39.8556,-88.9337,1840007269
Jackson,MI,Michigan,42.2431,-84.4037,1840003173
Fort Myers,FL,Florida,26.6195,-81.8303,1840014226
Goodyear,AZ,Arizona,33.2613,-112.3622,1840020564
Dalton,GA,Georgia,34.769,-84.9712,1840014651
Bryan,TX,Texas,30.6657,-96.3668,1840019569
Waukegan,IL,Illinois,42.3697,-87.8716,1840010113
Hawthorne,CA,California,33.9146,-118.3476,1840020486
Anderson,IN,Indiana,40.0891,-85.6893,1840007242
Redwood City,CA,California,37.5026,-122.2252,1840020304
Hoover,AL,Alabama,33.3754,-86.8064,1840014795
Lake Forest,CA,California,33.6606,-117.6712,1840020591
Napa,CA,California,38.2976,-122.3011,1840020241
Whittier,CA,California,33.9678,-118.0188,1840021878
Clifton,NJ,New Jersey,40.8631,-74.1575,1840003511
Largo,FL,Florida,27.9088,-82.7711,1840015114
Bloomington,MN,Minnesota,44.8306,-93.3151,1840006747
Johns Creek,GA,Georgia,34.0333,-84.2027,1840014742
Newport Beach,CA,California,33.6151,-117.8669,1840020581
Mission,TX,Texas,26.2041,-98.3251,1840021026
Milpitas,CA,California,37.4339,-121.8921,1840020329
Troy,MI,Michigan,42.5818,-83.1457,1840002434
Madera,CA,California,36.9631,-120.0782,1840020300
Joplin,MO,Missouri,37.0758,-94.5018,1840008771
Chino Hills,CA,California,33.9508,-117.7253,1840019115
Alhambra,CA,California,34.084,-118.1355,1840019222
Franklin,TN,Tennessee,35.9216,-86.8525,1840013380
Melbourne,FL,Florida,28.1085,-80.6627,1840015960
Port Huron,MI,Michigan,42.9822,-82.4387,1840003953
Springfield,OH,Ohio,39.9297,-83.7957,1840003765
Mountain View,CA,California,37.4,-122.0796,1840020332
Zephyrhills,FL,Florida,28.2408,-82.1796,1840015968
St. Augustine,FL,Florida,29.8977,-81.31,1840015935
Flagstaff,AZ,Arizona,35.1872,-111.6195,1840020335
Buena Park,CA,California,33.8572,-118.0046,1840019324
Pleasanton,CA,California,37.6663,-121.8805,1840020298
Silver Spring,MD,Maryland,39.0028,-77.0207,1840005845
Atascocita,TX,Texas,29.9777,-95.1953,1840018251
Westland,MI,Michigan,42.3192,-83.3805,1840001847
Auburn,WA,Washington,47.3039,-122.2108,1840018416
Cranston,RI,Rhode Island,41.7658,-71.4857,1840003287
Somerville,MA,Massachusetts,42.3908,-71.1013,1840003123
Folsom,CA,California,38.6668,-121.1422,1840020246
Springdale,AR,Arkansas,36.1899,-94.1574,1840015336
Deerfield Beach,FL,Florida,26.305,-80.1277,1840015136
Warwick,RI,Rhode Island,41.7062,-71.4334,1840003344
Cicero,IL,Illinois,41.8445,-87.7593,1840009186
Farmington Hills,MI,Michigan,42.486,-83.3771,1840002442
Newark,OH,Ohio,40.0705,-82.4251,1840001419
Williamsburg,VA,Virginia,37.2692,-76.7076,1840001720
Brooklyn Park,MN,Minnesota,45.1112,-93.3505,1840004023
Hattiesburg,MS,Mississippi,31.3074,-89.317,1840013878
Alexandria,LA,Louisiana,31.2923,-92.4702,1840013873
Lawrence,MA,Massachusetts,42.7003,-71.1626,1840000408
Florence,AL,Alabama,34.8303,-87.6654,1840002083
Valdosta,GA,Georgia,30.8502,-83.2788,1840015894
Plymouth,MN,Minnesota,45.0225,-93.4618,1840008929
Buckeye,AZ,Arizona,33.4314,-112.6429,1840021939
Georgetown,TX,Texas,30.6668,-97.6953,1840020875
Cheyenne,WY,Wyoming,41.1351,-104.79,1840018713
Cedar Park,TX,Texas,30.5106,-97.8196,1840019572
The Villages,FL,Florida,28.9021,-81.9888,1840014065
Kokomo,IN,Indiana,40.464,-86.1277,1840013844
Tustin,CA,California,33.7309,-117.8106,1840021967
Lakewood,CA,California,33.8471,-118.1221,1840020515
Perris,CA,California,33.7899,-117.2233,1840020557
St. Joseph,MO,Missouri,39.7599,-94.821,1840009549
Flower Mound,TX,Texas,33.0344,-97.1146,1840022010
Pharr,TX,Texas,26.1685,-98.1904,1840021030
Pine Hills,FL,Florida,28.5818,-81.4693,1840014098
Alton,IL,Illinois,38.9034,-90.1523,1840007424
Loveland,CO,Colorado,40.4166,-105.0623,1840020152
Boynton Beach,FL,Florida,26.5281,-80.0811,1840014208
New Rochelle,NY,New York,40.9305,-73.7836,1840000782
Anderson,SC,South Carolina,34.5211,-82.6479,1840013579
Jonesboro,AR,Arkansas,35.8212,-90.6791,1840014507
Lebanon,PA,Pennsylvania,40.3412,-76.4227,1840001347
Parma,OH,Ohio,41.3843,-81.7286,1840003406
Layton,UT,Utah,41.0769,-111.9621,1840020145
Elizabethtown,KY,Kentucky,37.703,-85.877,1840013218
Texarkana,TX,Texas,33.4487,-94.0815,1840021987
Alameda,CA,California,37.767,-122.2672,1840018913
Kankakee,IL,Illinois,41.1019,-87.8643,1840008260
Watsonville,CA,California,36.9206,-121.7706,1840021581
Porterville,CA,California,36.0644,-119.0338,1840020368
Baytown,TX,Texas,29.7586,-94.9669,1840019616
Upland,CA,California,34.1178,-117.6603,1840021730
Davis,CA,California,38.5552,-121.7365,1840018833
Camarillo,CA,California,34.223,-119.0322,1840019201
South Jordan,UT,Utah,40.557,-111.9782,1840021385
Battle Creek,MI,Michigan,42.2986,-85.2296,1840003176
Bellflower,CA,California,33.888,-118.1271,1840019230
San Marcos,TX,Texas,29.8736,-97.9381,1840022188
San Ramon,CA,California,37.7625,-121.9365,1840021530
Lake Jackson,TX,Texas,29.0516,-95.4522,1840020980
Bethlehem,PA,Pennsylvania,40.6266,-75.3679,1840000986
Wyoming,MI,Michigan,42.8909,-85.7066,1840000374
Oshkosh,WI,Wisconsin,44.0228,-88.5619,1840002246
Hammond,IN,Indiana,41.6169,-87.491,1840007092
Waldorf,MD,Maryland,38.6085,-76.9195,1840006175
Missouri City,TX,Texas,29.563,-95.5365,1840020950
Pasco,WA,Washington,46.2506,-119.1304,1840019888
Wheeling,WV,West Virginia,40.0752,-80.6951,1840005510
Kendall,FL,Florida,25.6697,-80.3556,1840014244
Baldwin Park,CA,California,34.0829,-117.9721,1840019227
Rancho Cordova,CA,California,38.574,-121.2523,1840020248
Conway,AR,Arkansas,35.0754,-92.4694,1840014598
Gary,IN,Indiana,41.5906,-87.3472,1840008194
Altoona,PA,Pennsylvania,40.5082,-78.4007,1840001080
Lodi,CA,California,38.1218,-121.2932,1840020263
Arlington Heights,IL,Illinois,42.0955,-87.9825,1840011243
Bolingbrook,IL,Illinois,41.6903,-88.1019,1840011482
Rochester Hills,MI,Michigan,42.6645,-83.1563,1840002429
Winchester,VA,Virginia,39.1735,-78.1746,1840001623
Framingham,MA,Massachusetts,42.3085,-71.4368,1840003131
Hilton Head Island,SC,South Carolina,32.1896,-80.7499,1840016974
Centreville,VA,Virginia,38.8391,-77.4388,1840006015
Union City,CA,California,37.603,-122.0187,1840021539
Owensboro,KY,Kentucky,37.7574,-87.1173,1840014340
Jackson,TN,Tennessee,35.6535,-88.8353,1840014528
Cleveland,TN,Tennessee,35.1817,-84.8707,1840014603
Wausau,WI,Wisconsin,44.962,-89.6459,1840002163
Camden,NJ,New Jersey,39.9362,-75.1073,1840001507
Anniston,AL,Alabama,33.6712,-85.8136,1840006563
Evanston,IL,Illinois,42.0463,-87.6942,1840008129
Apple Valley,CA,California,34.5328,-117.2104,1840021733
Mansfield,OH,Ohio,40.7656,-82.5275,1840000960
Schaumburg,IL,Illinois,42.0307,-88.0838,1840011319
Pocatello,ID,Idaho,42.8724,-112.4646,1840013376
Woodbury,MN,Minnesota,44.9056,-92.923,1840009998
Southfield,MI,Michigan,42.4765,-83.2605,1840002431
Ellicott City,MD,Maryland,39.2773,-76.8344,1840005802
Dale City,VA,Virginia,38.6473,-77.3459,1840006094
Maple Grove,MN,Minnesota,45.1089,-93.4626,1840008923
Pittsburg,CA,California,38.0182,-121.8964,1840020282
New Britain,CT,Connecticut,41.6758,-72.7862,1840004774
Morgantown,WV,West Virginia,39.638,-79.9468,1840005647
Mansfield,TX,Texas,32.569,-97.1211,1840020702
Hammond,LA,Louisiana,30.5061,-90.4563,1840013908
Dothan,AL,Alabama,31.2335,-85.4069,1840001518
Harrisonburg,VA,Virginia,38.4361,-78.8735,1840003844
Wenatchee,WA,Washington,47.4356,-120.3283,1840021074
Waukesha,WI,Wisconsin,43.0087,-88.2464,1840003008
Pawtucket,RI,Rhode Island,41.8744,-71.3743,1840003285
Redmond,WA,Washington,47.6762,-122.1169,1840019835
Lauderhill,FL,Florida,26.1605,-80.2242,1840015146
Sumter,SC,South Carolina,33.9392,-80.393,1840015612
Redlands,CA,California,34.0511,-117.1712,1840020412
Daphne,AL,Alabama,30.6286,-87.8866,1840006178
Mount Vernon,WA,Washington,48.4202,-122.3115,1840019774
Weston,FL,Florida,26.1006,-80.4054,1840016003
St. Charles,MO,Missouri,38.7954,-90.5157,1840009719
Janesville,WI,Wisconsin,42.6855,-89.0136,1840002467
Sherman,TX,Texas,33.6274,-96.6218,1840021953
North Richland Hills,TX,Texas,32.8605,-97.218,1840020703
Broomfield,CO,Colorado,39.9541,-105.0527,1840018781
El Paso de Robles,CA,California,35.6394,-120.656,1840074847
Bristol,TN,Tennessee,36.5572,-82.2154,1840013301
Wilmington,DE,Delaware,39.7415,-75.5413,1840005579
Casas Adobes,AZ,Arizona,32.3423,-111.0114,1840018108
Walnut Creek,CA,California,37.9024,-122.0398,1840021531
Poinciana,FL,Florida,28.1217,-81.482,1840014132
Lynwood,CA,California,33.924,-118.2017,1840020492
Glen Burnie,MD,Maryland,39.1559,-76.6072,1840005917
Lehi,UT,Utah,40.4136,-111.8726,1840020168
Passaic,NJ,New Jersey,40.8574,-74.1282,1840000837
Homestead,FL,Florida,25.4665,-80.4472,1840015159
West Bend,WI,Wisconsin,43.4184,-88.1824,1840002829
Delray Beach,FL,Florida,26.455,-80.0905,1840015123
Sheboygan,WI,Wisconsin,43.7403,-87.7316,1840002628
Lake Elsinore,CA,California,33.6847,-117.3344,1840020560
Daytona Beach,FL,Florida,29.1994,-81.0982,1840015068
Los Lunas,NM,New Mexico,34.8115,-106.7803,1840022814
Lima,OH,Ohio,40.741,-84.1121,1840002785
Decatur,AL,Alabama,34.573,-86.9906,1840001403
Rocklin,CA,California,38.8075,-121.2488,1840020232
Rogers,AR,Arkansas,36.3172,-94.1526,1840014444
Castle Rock,CO,Colorado,39.3763,-104.8535,1840022455
Hanover,PA,Pennsylvania,39.8117,-76.9835,1840001450
Bossier City,LA,Louisiana,32.5227,-93.6666,1840013790
Dubuque,IA,Iowa,42.5008,-90.7067,1840000438
Rockville,MD,Maryland,39.0834,-77.1552,1840005849
Victoria,TX,Texas,28.8285,-96.985,1840023044
Saratoga Springs,NY,New York,43.0674,-73.7775,1840000369
Gaithersburg,MD,Maryland,39.1346,-77.2132,1840005848
Union City,NJ,New Jersey,40.7674,-74.0323,1840001034
Ames,IA,Iowa,42.0259,-93.6215,1840007019
West Des Moines,IA,Iowa,41.5522,-93.7805,1840010185
South San Francisco,CA,California,37.6536,-122.4197,1840021552
Yorba Linda,CA,California,33.889,-117.7714,1840021970
Casper,WY,Wyoming,42.842,-106.3207,1840038324
Palatine,IL,Illinois,42.1181,-88.043,1840011311
Corvallis,OR,Oregon,44.5697,-123.278,1840018611
Ankeny,IA,Iowa,41.7285,-93.6033,1840007066
Mount Vernon,NY,New York,40.9136,-73.8291,1840000781
Rowlett,TX,Texas,32.9157,-96.5488,1840020711
Lakeville,MN,Minnesota,44.6774,-93.252,1840007859
Alpharetta,GA,Georgia,34.0704,-84.2739,1840013659
Longview,WA,Washington,46.1461,-122.9629,1840019904
DeKalb,IL,Illinois,41.9313,-88.7482,1840007033
Petaluma,CA,California,38.2423,-122.6267,1840020244
Redondo Beach,CA,California,33.8574,-118.3766,1840020509
Tamarac,FL,Florida,26.2056,-80.2542,1840016001
Laguna Niguel,CA,California,33.5275,-117.705,1840020589
Eagan,MN,Minnesota,44.8169,-93.1638,1840007852
Kenner,LA,Louisiana,30.0109,-90.2549,1840015047
Bay City,MI,Michigan,43.5903,-83.8886,1840002583
North Little Rock,AR,Arkansas,34.7808,-92.2371,1840014632
Sammamish,WA,Washington,47.6017,-122.0416,1840021115
Shawnee,KS,Kansas,39.0158,-94.8076,1840001641
Jupiter,FL,Florida,26.9199,-80.1128,1840017255
Doral,FL,Florida,25.8151,-80.3565,1840015148
Florence-Graham,CA,California,33.9682,-118.2447,1840037057
Carbondale,IL,Illinois,37.7221,-89.2238,1840007560
Blaine,MN,Minnesota,45.1696,-93.2077,1840006719
Weirton,WV,West Virginia,40.406,-80.5671,1840005405
Tulare,CA,California,36.1996,-119.34,1840021638
Wellington,FL,Florida,26.6461,-80.2699,1840018311
Pflugerville,TX,Texas,30.452,-97.6022,1840020892
Palo Alto,CA,California,37.3913,-122.1468,1840020333
Schenectady,NY,New York,42.8025,-73.9276,1840000395
Great Falls,MT,Montana,47.5022,-111.2995,1840019839
Michigan City,IN,Indiana,41.7099,-86.8705,1840013869
Bayonne,NJ,New Jersey,40.6661,-74.1141,1840003595
Eden Prairie,MN,Minnesota,44.8488,-93.4595,1840007821
Port Orange,FL,Florida,29.1084,-81.0137,1840015077
Dublin,CA,California,37.7161,-121.8963,1840018916
Grand Forks,ND,North Dakota,47.9218,-97.0886,1840000101
Noblesville,IN,Indiana,40.0354,-86.0042,1840013891
San Clemente,CA,California,33.4498,-117.6103,1840021962
Brentwood,CA,California,37.9355,-121.7191,1840018904
Carmichael,CA,California,38.6337,-121.323,1840017579
East Orange,NJ,New Jersey,40.7651,-74.2117,1840002792
Eastvale,CA,California,33.9617,-117.5802,1840028421
Chapel Hill,NC,North Carolina,35.927,-79.0391,1840016152
Rocky Mount,NC,North Carolina,35.9676,-77.8048,1840014490
Haverhill,MA,Massachusetts,42.7838,-71.0871,1840002450
Beloit,WI,Wisconsin,42.523,-89.0184,1840002471
Glens Falls,NY,New York,43.3109,-73.6459,1840000345
Brentwood,NY,New York,40.7839,-73.2522,1840005021
Springfield,OR,Oregon,44.0538,-122.981,1840021263
Bethesda,MD,Maryland,38.9866,-77.1188,1840005826
Johnstown,PA,Pennsylvania,40.3258,-78.9193,1840001116
Dundalk,MD,Maryland,39.2703,-76.4942,1840005681
Castro Valley,CA,California,37.7091,-122.0631,1840017620
Coon Rapids,MN,Minnesota,45.1755,-93.3095,1840006714
Elmira,NY,New York,42.0938,-76.8097,1840000472
Mankato,MN,Minnesota,44.1712,-93.9773,1840008975
Albany,OR,Oregon,44.6274,-123.0966,1840018605
North Miami,FL,Florida,25.9007,-80.1686,1840015154
Encinitas,CA,California,33.049,-117.2613,1840020619
Skokie,IL,Illinois,42.0359,-87.74,1840011321
Leander,TX,Texas,30.5728,-97.8618,1840020877
Parkersburg,WV,West Virginia,39.2624,-81.542,1840005786
Waltham,MA,Massachusetts,42.3889,-71.2423,1840000428
Port Charlotte,FL,Florida,26.9918,-82.114,1840014200
Palm Harbor,FL,Florida,28.0847,-82.7481,1840014143
San Luis Obispo,CA,California,35.2669,-120.6691,1840021734
Sebring,FL,Florida,27.477,-81.453,1840015986
Council Bluffs,IA,Iowa,41.2369,-95.8517,1840007117
Hamilton,OH,Ohio,39.3938,-84.5653,1840003803
Moore,OK,Oklahoma,35.3293,-97.4758,1840020449
Pico Rivera,CA,California,33.9902,-118.0888,1840020506
Casa Grande,AZ,Arizona,32.9068,-111.7624,1840019364
Monessen,PA,Pennsylvania,40.1519,-79.8828,1840001146
Montebello,CA,California,34.0155,-118.1108,1840020499
Rome,GA,Georgia,34.2661,-85.1862,1840014681
The Hammocks,FL,Florida,25.67,-80.4483,1840029009
Millcreek,UT,Utah,40.6892,-111.8291,1840018744
Sanford,FL,Florida,28.7893,-81.276,1840015958
National City,CA,California,32.6654,-117.0983,1840020622
Burnsville,MN,Minnesota,44.7648,-93.2795,1840006766
Coconut Creek,FL,Florida,26.2803,-80.1842,1840015132
Morristown,TN,Tennessee,36.2046,-83.3006,1840014467
Reston,VA,Virginia,38.9497,-77.3461,1840006025
Lakewood,WA,Washington,47.1628,-122.5299,1840019860
Spring,TX,Texas,30.0613,-95.383,1840019615
Gadsden,AL,Alabama,34.009,-86.0156,1840006332
Taylor,MI,Michigan,42.226,-83.2688,1840003965
Novi,MI,Michigan,42.4786,-83.4893,1840002423
Marietta,GA,Georgia,33.9533,-84.5422,1840015633
Hot Springs,AR,Arkansas,34.4892,-93.0501,1840014670
Woodland,CA,California,38.6712,-121.75,1840021485
Fountainebleau,FL,Florida,25.7723,-80.3458,1840028983
La Habra,CA,California,33.9278,-117.9513,1840020585
Malden,MA,Massachusetts,42.4305,-71.0576,1840000430
South Whittier,CA,California,33.9336,-118.0311,1840019209
Commerce City,CO,Colorado,39.8642,-104.8434,1840018785
South Hill,WA,Washington,47.1203,-122.2848,1840037886
Bristol,CT,Connecticut,41.6812,-72.9407,1840004772
Columbus,IN,Indiana,39.2093,-85.9183,1840013714
West Allis,WI,Wisconsin,43.0068,-88.0296,1840003034
Taylorsville,UT,Utah,40.657,-111.9493,1840021387
Bangor,ME,Maine,44.8322,-68.7906,1840000238
Monterey Park,CA,California,34.0497,-118.1326,1840020500
Greenwood,IN,Indiana,39.6019,-86.1073,1840007332
Bartlett,TN,Tennessee,35.2337,-89.8195,1840013472
Bradenton,FL,Florida,27.49,-82.5739,1840014173
Pontiac,MI,Michigan,42.6493,-83.2878,1840002427
Staunton,VA,Virginia,38.1593,-79.0611,1840001670
Meriden,CT,Connecticut,41.5367,-72.7944,1840004848
Gardena,CA,California,33.8944,-118.3073,1840020482
Apex,NC,North Carolina,35.7239,-78.8728,1840015355
Royal Oak,MI,Michigan,42.5084,-83.1539,1840002430
Cupertino,CA,California,37.3168,-122.0465,1840018950
La Mesa,CA,California,32.7703,-117.0204,1840020625
Benton Harbor,MI,Michigan,42.1159,-86.4488,1840003215
St. Clair Shores,MI,Michigan,42.4921,-82.8957,1840003093
Des Plaines,IL,Illinois,42.0345,-87.9009,1840007032
Lewiston,ME,Maine,44.0915,-70.1681,1840000320
Margate,FL,Florida,26.2466,-80.2119,1840015999
Midland,MI,Michigan,43.6241,-84.2319,1840002660
Carson City,NV,Nevada,39.1512,-119.7474,1840003826
Bowie,MD,Maryland,38.9569,-76.7409,1840005970
Middletown,NY,New York,41.4459,-74.4236,1840000585
Caldwell,ID,Idaho,43.6453,-116.6591,1840018641
San Rafael,CA,California,37.9905,-122.5222,1840021513
Richland,WA,Washington,46.2824,-119.2938,1840019889
St. Peters,MO,Missouri,38.7824,-90.6061,1840009721
Wesley Chapel,FL,Florida,28.2106,-82.3238,1840014118
Hendersonville,TN,Tennessee,36.3063,-86.5998,1840014419
White Plains,NY,New York,41.022,-73.7549,1840003477
Huntersville,NC,North Carolina,35.4058,-80.8727,1840016349
Santee,CA,California,32.8554,-116.9851,1840021992
Jefferson City,MO,Missouri,38.5676,-92.1759,1840008615
Beckley,WV,West Virginia,37.7878,-81.1841,1840006350
Arcadia,CA,California,34.1342,-118.0373,1840019223
Titusville,FL,Florida,28.5727,-80.8193,1840015962
Cartersville,GA,Georgia,34.1639,-84.8007,1840014701
Walla Walla,WA,Washington,46.067,-118.3366,1840021174
Orland Park,IL,Illinois,41.6074,-87.8619,1840011310
Towson,MD,Maryland,39.3944,-76.619,1840005695
Weymouth,MA,Massachusetts,42.1984,-70.9466,1840132442
Parker,CO,Colorado,39.5084,-104.7753,1840022454
Palm Beach Gardens,FL,Florida,26.8466,-80.1679,1840015125
Bozeman,MT,Montana,45.6832,-111.0552,1840018509
East Stroudsburg,PA,Pennsylvania,41.0023,-75.1779,1840003507
Huntington Park,CA,California,33.98,-118.2167,1840019235
Taunton,MA,Massachusetts,41.9036,-71.0943,1840003220
Midwest City,OK,Oklahoma,35.463,-97.3709,1840020425
Medford,MA,Massachusetts,42.4234,-71.1087,1840000431
Goldsboro,NC,North Carolina,35.3778,-77.972,1840013432
Euless,TX,Texas,32.8508,-97.0799,1840020693
Manhattan,KS,Kansas,39.1886,-96.6046,1840001589
Shoreline,WA,Washington,47.7564,-122.3426,1840021118
Lake Havasu City,AZ,Arizona,34.5006,-114.3113,1840021044
Smyrna,GA,Georgia,33.8633,-84.5168,1840015634
Cape Girardeau,MO,Missouri,37.3108,-89.5597,1840007598
Tamiami,FL,Florida,25.7556,-80.4016,1840029085
Kendale Lakes,FL,Florida,25.7081,-80.4078,1840029045
Grants Pass,OR,Oregon,42.4333,-123.3317,1840020087
Blue Springs,MO,Missouri,39.0124,-94.2721,1840007396
Southaven,MS,Mississippi,34.9514,-89.9787,1840015519
Tinley Park,IL,Illinois,41.567,-87.805,1840011331
Diamond Bar,CA,California,33.9991,-117.8161,1840019244
Pittsfield,MA,Massachusetts,42.4517,-73.2605,1840003116
Eagle Pass,TX,Texas,28.7125,-100.484,1840019690
New Brunswick,NJ,New Jersey,40.487,-74.445,1840001339
Lenexa,KS,Kansas,38.9609,-94.8018,1840001639
Hazleton,PA,Pennsylvania,40.9504,-75.9724,1840000753
Twin Falls,ID,Idaho,42.5645,-114.4615,1840021301
Brookhaven,GA,Georgia,33.8744,-84.3314,1840029224
Novato,CA,California,38.092,-122.5576,1840020260
Tigard,OR,Oregon,45.4237,-122.7845,1840021206
Highland,CA,California,34.1113,-117.1654,1840020405
Fountain Valley,CA,California,33.7105,-117.9514,1840020575
Dearborn Heights,MI,Michigan,42.3164,-83.2769,1840003970
Grapevine,TX,Texas,32.9343,-97.0744,1840020697
Fond du Lac,WI,Wisconsin,43.7718,-88.4396,1840002603
Hacienda Heights,CA,California,33.997,-117.9728,1840017921
Ithaca,NY,New York,42.4442,-76.5032,1840000442
Apple Valley,MN,Minnesota,44.7457,-93.2006,1840006768
Chicopee,MA,Massachusetts,42.1764,-72.5719,1840000462
Oak Lawn,IL,Illinois,41.7139,-87.7528,1840011306
Cathedral City,CA,California,33.8363,-116.4642,1840019293
Delano,CA,California,35.767,-119.2637,1840019151
Bentonville,AR,Arkansas,36.3546,-94.2306,1840013319
Stonecrest,GA,Georgia,33.6842,-84.1372,1840029466
Kettering,OH,Ohio,39.6957,-84.1495,1840003783
Colton,CA,California,34.0538,-117.3254,1840019120
Kingston,NY,New York,41.9295,-73.9968,1840000493
West Haven,CT,Connecticut,41.2739,-72.9672,1840004852
St. Cloud,FL,Florida,28.2294,-81.2829,1840015971
Normal,IL,Illinois,40.5218,-88.9881,1840009401
Berwyn,IL,Illinois,41.8433,-87.7909,1840007027
Milford,CT,Connecticut,41.2256,-73.0616,1840028594
Aloha,OR,Oregon,45.492,-122.8726,1840017414
Arroyo Grande,CA,California,35.1241,-120.5845,1840019125
Minnetonka,MN,Minnesota,44.9322,-93.4598,1840007831
Rosemead,CA,California,34.0689,-118.0823,1840020495
Paramount,CA,California,33.8976,-118.1652,1840020504
Yucaipa,CA,California,34.0336,-117.0429,1840021732
Brunswick,GA,Georgia,31.145,-81.474,1840013875
Williamsport,PA,Pennsylvania,41.2398,-77.0371,1840000637
Elyria,OH,Ohio,41.3761,-82.1063,1840000643
Leesburg,VA,Virginia,39.1058,-77.5544,1840005872
Mount Prospect,IL,Illinois,42.0641,-87.9375,1840011300
Pinellas Park,FL,Florida,27.8589,-82.7078,1840015112
Bellevue,NE,Nebraska,41.1535,-95.9357,1840007142
West Sacramento,CA,California,38.5557,-121.5504,1840021483
Apopka,FL,Florida,28.7014,-81.5304,1840014093
Lewiston,ID,Idaho,46.3934,-116.9934,1840019897
Grand Island,NE,Nebraska,40.9214,-98.3584,1840000956
Palm Desert,CA,California,33.7378,-116.3695,1840020555
Milford city ,CT,Connecticut,41.2256,-73.0625,1840028605
Watertown,NY,New York,43.9734,-75.9094,1840002200
Little Elm,TX,Texas,33.1856,-96.929,1840020640
Chambersburg,PA,Pennsylvania,39.9315,-77.6556,1840001410
Revere,MA,Massachusetts,42.4192,-71.0036,1840000457
Peabody,MA,Massachusetts,42.5335,-70.9724,1840000414
Wylie,TX,Texas,33.0362,-96.5161,1840022018
Beaufort,SC,South Carolina,32.4597,-80.7235,1840013818
Aspen Hill,MD,Maryland,39.0928,-77.0823,1840005825
DeSoto,TX,Texas,32.5992,-96.8633,1840019441
Helena,MT,Montana,46.5965,-112.0202,1840019820
Edina,MN,Minnesota,44.8914,-93.3602,1840007822
Wheaton,IL,Illinois,41.8561,-88.1083,1840010166
West New York,NJ,New Jersey,40.7856,-74.0093,1840001035
Hoboken,NJ,New Jersey,40.7453,-74.0279,1840003599
Lacey,WA,Washington,47.046,-122.7934,1840019866
Summerville,SC,South Carolina,33.0015,-80.1799,1840016886
Oak Park,IL,Illinois,41.8872,-87.7899,1840011307
Maricopa,AZ,Arizona,33.0404,-112.0006,1840020629
Lompoc,CA,California,34.6618,-120.4714,1840020468
Kentwood,MI,Michigan,42.8852,-85.5925,1840002930
Levittown,PA,Pennsylvania,40.1537,-74.853,1840005408
Sierra Vista,AZ,Arizona,31.563,-110.3153,1840022103
Levittown,NY,New York,40.7241,-73.5125,1840005270
Madison,AL,Alabama,34.7114,-86.7626,1840015524
Smyrna,TN,Tennessee,35.9722,-86.5253,1840017758
Glendora,CA,California,34.1449,-117.8468,1840020484
Burien,WA,Washington,47.4762,-122.3394,1840018420
Perth Amboy,NJ,New Jersey,40.5203,-74.2724,1840001340
Herriman,UT,Utah,40.4899,-112.0171,1840020155
Farmington,NM,New Mexico,36.7555,-108.1823,1840020349
New Bern,NC,North Carolina,35.0955,-77.0723,1840014591
Placentia,CA,California,33.8807,-117.8553,1840020583
Hinesville,GA,Georgia,31.8247,-81.6135,1840014931
Beaumont,CA,California,33.9076,-116.9766,1840019298
Collierville,TN,Tennessee,35.0471,-89.6988,1840016403
West Lafayette,IN,Indiana,40.4432,-86.9239,1840010430
Florissant,MO,Missouri,38.7996,-90.3269,1840008586
Hoffman Estates,IL,Illinois,42.0639,-88.1468,1840011263
Queen Creek,AZ,Arizona,33.2386,-111.6343,1840021944
Aliso Viejo,CA,California,33.5792,-117.7289,1840019321
Kannapolis,NC,North Carolina,35.4764,-80.6403,1840014560
Methuen Town,MA,Massachusetts,42.734,-71.1889,1840031195
Sahuarita,AZ,Arizona,31.9323,-110.9654,1840022102
Traverse City,MI,Michigan,44.7547,-85.6035,1840003946
Severn,MD,Maryland,39.1355,-76.6958,1840005925
Catalina Foothills,AZ,Arizona,32.3041,-110.8835,1840018110
Galveston,TX,Texas,29.2487,-94.891,1840020970
Country Club,FL,Florida,25.9407,-80.3102,1840029029
Cookeville,TN,Tennessee,36.1484,-85.5114,1840014470
Mishawaka,IN,Indiana,41.6736,-86.1669,1840014695
Rowland Heights,CA,California,33.9716,-117.8911,1840019211
Plainfield,NJ,New Jersey,40.6154,-74.4157,1840001090
Bullhead City,AZ,Arizona,35.1205,-114.546,1840019748
Stillwater,OK,Oklahoma,36.1316,-97.074,1840021675
Forney,TX,Texas,32.744,-96.4529,1840020734
Wheaton,MD,Maryland,39.0492,-77.0572,1840031295
Azusa,CA,California,34.1386,-117.9124,1840019226
North Bethesda,MD,Maryland,39.0393,-77.1191,1840031494
Cerritos,CA,California,33.8677,-118.0686,1840019215
Ashburn,VA,Virginia,39.03,-77.4711,1840024495
Bloomsburg,PA,Pennsylvania,41.0027,-76.4561,1840000811
Morehead City,NC,North Carolina,34.7308,-76.7387,1840016482
Coral Gables,FL,Florida,25.7037,-80.2715,1840015147
Enid,OK,Oklahoma,36.4061,-97.8701,1840020373
Lakewood,OH,Ohio,41.4824,-81.8008,1840000608
Oroville,CA,California,39.4999,-121.5634,1840020182
Wilson,NC,North Carolina,35.7312,-77.9284,1840015383
Lawrence,IN,Indiana,39.8674,-85.9905,1840008434
Portage,MI,Michigan,42.2,-85.5906,1840003183
San Fernando,TX,Texas,26.4033,-98.8351,1840041516
