id,city,state_id,state_name,lat,lng
1840034016,New York,NY,New York,40.6943,-73.9249
1840020491,Los Angeles,CA,California,34.1139,-118.4068
1840000494,Chicago,IL,Illinois,41.8373,-87.6862
1840015149,Miami,FL,Florida,25.7839,-80.2102
1840019440,Dallas,TX,Texas,32.7936,-96.7662
1840000673,Philadelphia,PA,Pennsylvania,40.0077,-75.1339
1840020925,Houston,TX,Texas,29.7863,-95.3889
1840013660,Atlanta,GA,Georgia,33.7627,-84.4224
1840006060,Washington,DC,District of Columbia,38.9047,-77.0163
1840000455,Boston,MA,Massachusetts,42.3188,-71.0846
1840020568,Phoenix,AZ,Arizona,33.5722,-112.0891
1840021117,Seattle,WA,Washington,47.6211,-122.3244
1840021543,San Francisco,CA,California,37.7562,-122.443
1840003971,Detroit,MI,Michigan,42.3834,-83.1024
1840021990,San Diego,CA,California,32.8312,-117.1225
1840007830,Minneapolis,MN,Minnesota,44.9635,-93.2678
1840015982,Tampa,FL,Florida,27.9942,-82.4451
1840018789,Denver,CO,Colorado,39.7621,-104.8759
1840034030,Brooklyn,NY,New York,40.6501,-73.9496
1840034002,Queens,NY,New York,40.7498,-73.7976
1840020551,Riverside,CA,California,33.9381,-117.3948
1840001592,Baltimore,MD,Maryland,39.3051,-76.6144
1840020364,Las Vegas,NV,Nevada,36.2333,-115.2654
1840019941,Portland,OR,Oregon,45.5372,-122.65
1840022220,San Antonio,TX,Texas,29.4658,-98.5253
1840001651,St. Louis,MO,Missouri,38.6358,-90.2451
1840021491,Sacramento,CA,California,38.5667,-121.4683
1840015099,Orlando,FL,Florida,28.4772,-81.3369
1840021570,San Jose,CA,California,37.3019,-121.8486
1840000596,Cleveland,OH,Ohio,41.4767,-81.6804
1840001254,Pittsburgh,PA,Pennsylvania,40.4396,-79.9762
1840019590,Austin,TX,Texas,30.3004,-97.7522
1840003814,Cincinnati,OH,Ohio,39.1413,-84.5061
1840008535,Kansas City,MO,Missouri,39.1239,-94.5541
1840034000,Manhattan,NY,New York,40.7834,-73.9662
1840030084,Indianapolis,IN,Indiana,39.7771,-86.1458
1840003760,Columbus,OH,Ohio,39.9862,-82.985
1840014557,Charlotte,NC,North Carolina,35.208,-80.8304
1840003871,Virginia Beach,VA,Virginia,36.7335,-76.0435
1840033999,Bronx,NY,New York,40.8501,-73.8662
1840003046,Milwaukee,WI,Wisconsin,43.0642,-87.9673
1840003289,Providence,RI,Rhode Island,41.823,-71.4187
1840015031,Jacksonville,FL,Florida,30.3322,-81.6749
1840021383,Salt Lake City,UT,Utah,40.7777,-111.9306
1840036155,Nashville,TN,Tennessee,36.1715,-86.7843
1840001698,Richmond,VA,Virginia,37.5295,-77.4756
1840015457,Memphis,TN,Tennessee,35.1046,-89.9773
1840014497,Raleigh,NC,North Carolina,35.8325,-78.6435
1840001839,New Orleans,LA,Louisiana,30.0687,-89.9288
1840030815,Louisville,KY,Kentucky,38.1663,-85.6485
1840020428,Oklahoma City,OK,Oklahoma,35.4676,-97.5136
1840004836,Bridgeport,CT,Connecticut,41.1918,-73.1953
1840000386,Buffalo,NY,New York,42.9016,-78.8487
1840020696,Fort Worth,TX,Texas,32.7811,-97.3473
1840004773,Hartford,CT,Connecticut,41.7661,-72.6834
1840022101,Tucson,AZ,Arizona,32.1545,-110.8782
1840009315,Omaha,NE,Nebraska,41.2627,-96.0522
1840023252,El Paso,TX,Texas,31.8479,-106.4309
1840013305,Honolulu,HI,Hawaii,21.3294,-157.846
1840021024,McAllen,TX,Texas,26.2273,-98.2471
1840019176,Albuquerque,NM,New Mexico,35.1053,-106.6464
1840006507,Birmingham,AL,Alabama,33.5277,-86.7987
1840015988,Sarasota,FL,Florida,27.3386,-82.5431
1840034249,Dayton,OH,Ohio,39.7797,-84.1998
1840000373,Rochester,NY,New York,43.168,-77.6162
1840020319,Fresno,CA,California,36.7831,-119.7941
1840001044,Allentown,PA,Pennsylvania,40.5961,-75.4756
1840021672,Tulsa,OK,Oklahoma,36.1284,-95.9042
1840015130,Cape Coral,FL,Florida,26.6446,-81.9956
1840018905,Concord,CA,California,37.9722,-122.0016
1840018825,Colorado Springs,CO,Colorado,38.8674,-104.7606
1840015163,Charleston,SC,South Carolina,32.8153,-79.9628
1840000466,Springfield,MA,Massachusetts,42.1155,-72.5395
1840002928,Grand Rapids,MI,Michigan,42.962,-85.6562
1840020580,Mission Viejo,CA,California,33.6095,-117.655
1840000417,Albany,NY,New York,42.6664,-73.7987
1840014486,Knoxville,TN,Tennessee,35.9692,-83.9496
1840019148,Bakersfield,CA,California,35.3529,-119.0359
1840020135,Ogden,UT,Utah,41.2278,-111.9682
1840013941,Baton Rouge,LA,Louisiana,30.4418,-91.131
1840000791,Akron,OH,Ohio,41.0798,-81.5219
1840004850,New Haven,CT,Connecticut,41.3112,-72.9246
1840014730,Columbia,SC,South Carolina,34.0376,-80.9037
1840020566,Mesa,AZ,Arizona,33.4017,-111.718
1840015094,Palm Bay,FL,Florida,27.955,-80.6627
1840020174,Provo,UT,Utah,40.2457,-111.6457
1840000434,Worcester,MA,Massachusetts,42.2705,-71.8079
1840020553,Murrieta,CA,California,33.572,-117.1909
1840013501,Greenville,SC,South Carolina,34.8353,-82.3647
1840001686,Wichita,KS,Kansas,37.6896,-97.3442
1840000572,Toledo,OH,Ohio,41.6639,-83.5822
1840034032,Staten Island,NY,New York,40.5834,-74.1496
1840007069,Des Moines,IA,Iowa,41.5725,-93.6105
1840020490,Long Beach,CA,California,33.7981,-118.1675
1840015119,Port St. Lucie,FL,Florida,27.2796,-80.3883
1840019390,Denton,TX,Texas,33.2176,-97.1419
1840002915,Madison,WI,Wisconsin,43.0826,-89.3931
1840020121,Reno,NV,Nevada,39.5497,-119.8483
1840001288,Harrisburg,PA,Pennsylvania,40.2752,-76.8843
1840015509,Little Rock,AR,Arkansas,34.7256,-92.3576
1840020296,Oakland,CA,California,37.7903,-122.2165
1840013364,Durham,NC,North Carolina,35.9794,-78.9031
1840015324,Winston-Salem,NC,North Carolina,36.1029,-80.2611
1840014227,Bonita Springs,FL,Florida,26.3559,-81.7861
1840019304,Indio,CA,California,33.7346,-116.2346
1840015064,Palm Coast,FL,Florida,29.5392,-81.246
1840014569,Chattanooga,TN,Tennessee,35.0657,-85.2488
1840021093,Spokane,WA,Washington,47.6671,-117.433
1840000378,Syracuse,NY,New York,43.0409,-76.1438
1840003718,Lancaster,PA,Pennsylvania,40.0421,-76.3012
1840019422,Arlington,TX,Texas,32.6998,-97.125
1840021517,Stockton,CA,California,37.9765,-121.3109
1840000500,Poughkeepsie,NY,New York,41.6949,-73.921
1840029462,Augusta,GA,Georgia,33.3645,-82.0708
1840027142,Boise,ID,Idaho,43.6007,-116.2312
1840020474,Oxnard,CA,California,34.1963,-119.1815
1840003389,Scranton,PA,Pennsylvania,41.4044,-75.6649
1840020287,Modesto,CA,California,37.6374,-121.0028
1840015109,Kissimmee,FL,Florida,28.3042,-81.4164
1840018794,Aurora,CO,Colorado,39.7087,-104.7273
1840003563,Youngstown,OH,Ohio,41.0993,-80.6463
1840013368,Fayetteville,AR,Arkansas,36.0713,-94.166
1840019322,Anaheim,CA,California,33.839,-117.8572
1840015005,Pensacola,FL,Florida,30.4427,-87.1886
1840021731,Victorville,CA,California,34.5277,-117.3536
1840020516,Lancaster,CA,California,34.6935,-118.1753
1840013356,Greensboro,NC,North Carolina,36.0956,-79.8269
1840019718,Corpus Christi,TX,Texas,27.726,-97.3755
1840008261,Fort Wayne,IN,Indiana,41.0886,-85.1437
1840021964,Santa Ana,CA,California,33.7366,-117.8819
1840002949,Flint,MI,Michigan,43.0235,-83.6922
1840013490,Fayetteville,NC,North Carolina,35.0846,-78.9776
1840014895,Jackson,MS,Mississippi,32.3163,-90.2124
1840021488,Santa Rosa,CA,California,38.4458,-122.7067
1840003102,Lansing,MI,Michigan,42.7142,-84.5601
1630035577,San Juan,PR,Puerto Rico,18.4037,-66.0636
1840015211,Lexington,KY,Kentucky,38.0423,-84.4587
1840003172,Ann Arbor,MI,Michigan,42.2755,-83.7312
1840020361,Henderson,NV,Nevada,36.0133,-115.038
1840005061,Huntsville,AL,Alabama,34.6988,-86.6412
1840006009,Mobile,AL,Alabama,30.6783,-88.1162
1840020151,Fort Collins,CO,Colorado,40.5478,-105.0656
1840013411,Asheville,NC,North Carolina,35.5704,-82.5536
1840021864,Santa Clarita,CA,California,34.4175,-118.4964
1840008940,St. Paul,MN,Minnesota,44.9477,-93.104
1840018903,Antioch,CA,California,37.9789,-121.7958
1840015108,Lakeland,FL,Florida,28.0556,-81.9545
1840001383,Trenton,NJ,New Jersey,40.2236,-74.7641
1840009357,Lincoln,NE,Nebraska,40.809,-96.6788
1840009904,Springfield,MO,Missouri,37.1943,-93.2916
1840023385,Anchorage,AK,Alaska,61.1508,-149.1091
1840020662,Plano,TX,Texas,33.0502,-96.7487
1840019325,Irvine,CA,California,33.6772,-117.7738
1840007081,Davenport,IA,Iowa,41.5563,-90.6052
1840009132,Rockford,IL,Illinois,42.2597,-89.0641
1840002791,Newark,NJ,New Jersey,40.7245,-74.1725
1840009241,South Bend,IN,Indiana,41.6767,-86.2696
1840015768,Shreveport,LA,Louisiana,32.4656,-93.7956
1840011171,Round Lake Beach,IL,Illinois,42.379,-88.0811
1840015830,Savannah,GA,Georgia,32.0281,-81.1784
1840014717,Myrtle Beach,SC,South Carolina,33.7096,-78.8843
1840019350,Chula Vista,CA,California,32.6281,-117.0145
1840020007,Eugene,OR,Oregon,44.0563,-123.1173
1840000963,Canton,OH,Ohio,40.8075,-81.3677
1840020604,Lubbock,TX,Texas,33.5659,-101.8878
1840001185,Reading,PA,Pennsylvania,40.34,-75.9267
1840015970,Winter Haven,FL,Florida,28.0118,-81.7017
1840021224,Salem,OR,Oregon,44.9231,-123.0246
1840015977,St. Petersburg,FL,Florida,27.7931,-82.6652
1840015044,Lafayette,LA,Louisiana,30.2084,-92.0323
1840021002,Laredo,TX,Texas,27.5629,-99.4875
1840003600,Jersey City,NJ,New Jersey,40.7161,-74.0682
1840014559,Concord,NC,North Carolina,35.3933,-80.6366
1840014887,Columbus,GA,Georgia,32.51,-84.8771
1840019309,Chandler,AZ,Arizona,33.2826,-111.8516
1840020657,McKinney,TX,Texas,33.2015,-96.6669
1840021940,Scottsdale,AZ,Arizona,33.6872,-111.8651
1840020854,Killeen,TX,Texas,31.0754,-97.7296
1840015913,Tallahassee,FL,Florida,30.4551,-84.2526
1840009373,Peoria,IL,Illinois,40.752,-89.6153
1840015576,Wilmington,NC,North Carolina,34.21,-77.8866
1840008353,Montgomery,AL,Alabama,32.3473,-86.2666
1840021947,Gilbert,AZ,Arizona,33.3101,-111.7463
1840020563,Glendale,AZ,Arizona,33.5791,-112.2311
1840020363,North Las Vegas,NV,Nevada,36.288,-115.0901
1840003874,Chesapeake,VA,Virginia,36.6778,-76.3024
1840031233,Barnstable,MA,Massachusetts,41.6722,-70.3599
1840003869,Norfolk,VA,Virginia,36.8945,-76.259
1840020292,Fremont,CA,California,37.5265,-121.9852
1840018481,Kennewick,WA,Washington,46.1978,-119.1732
1840020707,Garland,TX,Texas,32.91,-96.6305
1840019438,Irving,TX,Texas,32.8584,-96.9702
1840021639,Visalia,CA,California,36.3276,-119.3269
1840003798,Atlantic City,NJ,New Jersey,39.3797,-74.4527
1840033743,Paradise,NV,Nevada,36.0807,-115.1369
1840002984,Nashua,NH,New Hampshire,42.7491,-71.491
1840006112,Arlington,VA,Virginia,38.8786,-77.1011
1840015157,Hialeah,FL,Florida,25.8696,-80.3046
1840001472,York,PA,Pennsylvania,39.9651,-76.7315
1840013730,Evansville,IN,Indiana,37.9881,-87.5341
1840019310,Avondale,AZ,Arizona,33.3858,-112.3236
1840019743,Brownsville,TX,Texas,25.998,-97.4565
1840013947,Gulfport,MS,Mississippi,30.4271,-89.0703
1840002400,Appleton,WI,Wisconsin,44.2779,-88.3891
1840018410,Bremerton,WA,Washington,47.5436,-122.7122
1840014524,Hickory,NC,North Carolina,35.7425,-81.323
1840021129,Tacoma,WA,Washington,47.2431,-122.4531
1840021728,San Bernardino,CA,California,34.1417,-117.2946
1840019570,College Station,TX,Texas,30.5852,-96.296
1840003185,Kalamazoo,MI,Michigan,42.2749,-85.5882
1840021844,Thousand Oaks,CA,California,34.1914,-118.8755
1840003858,Roanoke,VA,Virginia,37.2785,-79.958
1840020402,Fontana,CA,California,34.0968,-117.4599
1840020552,Moreno Valley,CA,California,33.9244,-117.2045
1840015120,North Port,FL,Florida,27.0577,-82.1975
1840000177,Fargo,ND,North Dakota,46.8652,-96.8292
1840002344,Green Bay,WI,Wisconsin,44.515,-87.9896
1840033832,Spring Valley,NV,Nevada,36.0987,-115.2619
1840019156,Amarillo,TX,Texas,35.1988,-101.8311
1840000327,Portland,ME,Maine,43.6773,-70.2715
1840021829,Santa Barbara,CA,California,34.4285,-119.7202
1840014022,Gainesville,FL,Florida,29.6804,-82.3458
1840019865,Olympia,WA,Washington,47.0417,-122.8959
1840020654,Frisco,TX,Texas,33.1555,-96.8215
1840003478,Yonkers,NY,New York,40.9466,-73.8674
1840004828,Norwich,CT,Connecticut,41.5495,-72.0882
1840020483,Glendale,CA,California,34.1818,-118.2468
1840020578,Huntington Beach,CA,California,33.696,-118.0025
1840015072,Deltona,FL,Florida,28.905,-81.2137
1840007034,Aurora,IL,Illinois,41.7637,-88.2901
1840021942,Tempe,AZ,Arizona,33.3881,-111.9318
1840003834,Overland Park,KS,Kansas,38.887,-94.687
1840020709,Grand Prairie,TX,Texas,32.6872,-97.0209
1840033833,Sunrise Manor,NV,Nevada,36.1785,-115.049
1840022140,Waco,TX,Texas,31.5598,-97.1881
1840021632,Salinas,CA,California,36.6884,-121.6317
1840004851,Waterbury,CT,Connecticut,41.5583,-73.0361
1840014421,Clarksville,TN,Tennessee,36.5695,-87.342
1840000471,Cedar Rapids,IA,Iowa,41.9665,-91.6782
1840002648,Sioux Falls,SD,South Dakota,43.5397,-96.732
1840006211,Huntington,WV,West Virginia,38.4109,-82.4344
1840020410,Ontario,CA,California,34.0393,-117.6064
1840005613,Hagerstown,MD,Maryland,39.6401,-77.7217
1840000478,Erie,PA,Pennsylvania,42.1168,-80.0733
1840021189,Vancouver,WA,Washington,45.6366,-122.5967
1840020041,Nampa,ID,Idaho,43.5845,-116.5631
1840015482,Spartanburg,SC,South Carolina,34.9437,-81.9257
1840013468,Gastonia,NC,North Carolina,35.2494,-81.1853
1840014236,Fort Lauderdale,FL,Florida,26.1412,-80.1464
1840000644,Lorain,OH,Ohio,41.4409,-82.184
1840014495,Murfreesboro,TN,Tennessee,35.8492,-86.4119
1840014479,High Point,NC,North Carolina,35.9907,-79.9938
1840003862,Newport News,VA,Virginia,37.1051,-76.5185
1840020411,Rancho Cucamonga,CA,California,34.1248,-117.5666
1840020550,Hemet,CA,California,33.7341,-116.9969
1840021579,Santa Cruz,CA,California,36.9789,-122.0346
1840004837,Danbury,CT,Connecticut,41.4016,-73.471
1840020567,Peoria,AZ,Arizona,33.7844,-112.2989
1840020623,Oceanside,CA,California,33.2247,-117.3083
1840020245,Elk Grove,CA,California,38.416,-121.3842
1840015141,Pembroke Pines,FL,Florida,26.0128,-80.3382
1840021499,Vallejo,CA,California,38.1133,-122.2358
1840020577,Garden Grove,CA,California,33.7787,-117.9601
1840033827,Enterprise,NV,Nevada,36.0164,-115.2208
1840020076,Medford,OR,Oregon,42.3372,-122.8537
1840016196,Cary,NC,North Carolina,35.782,-78.8191
1840019789,Marysville,WA,Washington,48.0809,-122.1561
1840019305,Corona,CA,California,33.8616,-117.5649
1840015067,Ocala,FL,Florida,29.178,-82.1511
1840003845,Fredericksburg,VA,Virginia,38.2992,-77.4872
1840013612,Gainesville,GA,Georgia,34.2903,-83.8301
1840002983,Manchester,NH,New Hampshire,42.9848,-71.4447
1630035622,Bayamón,PR,Puerto Rico,18.3793,-66.1635
1840007239,Champaign,IL,Illinois,40.1144,-88.2735
1840003837,Alexandria,VA,Virginia,38.8185,-77.0861
1840020293,Hayward,CA,California,37.6328,-122.0772
1840009517,Springfield,IL,Illinois,39.771,-89.6538
1840020198,Lakewood,CO,Colorado,39.6977,-105.1168
1840008354,Lafayette,IN,Indiana,40.399,-86.8594
1840005710,Frederick,MD,Maryland,39.4336,-77.4141
1840015039,Lake Charles,LA,Louisiana,30.2012,-93.2122
1840020794,Odessa,TX,Texas,31.8831,-102.3406
1840005563,Tuscaloosa,AL,Alabama,33.2348,-87.5267
1840015800,Warner Robins,GA,Georgia,32.597,-83.6529
1840020502,Palmdale,CA,California,34.5944,-118.1057
1840015144,Hollywood,FL,Florida,26.0294,-80.1679
1840020792,Midland,TX,Texas,32.0249,-102.1137
1840015083,Leesburg,FL,Florida,28.7657,-81.8996
1840020919,Port Arthur,TX,Texas,29.8554,-93.9264
1840002870,Muskegon,MI,Michigan,43.2281,-86.2563
1840043455,Macon,GA,Georgia,32.8065,-83.6974
1840001626,Kansas City,KS,Kansas,39.1234,-94.7443
1840021573,Sunnyvale,CA,California,37.3836,-122.0256
1840020507,Pomona,CA,California,34.0585,-117.7626
1840020620,Escondido,CA,California,33.1347,-117.0722
1840020930,Pasadena,TX,Texas,29.6583,-95.1499
1840003219,New Bedford,MA,Massachusetts,41.6697,-70.9428
1840020253,Fairfield,CA,California,38.2592,-122.0324
1840008143,Naperville,IL,Illinois,41.7483,-88.1657
1840018417,Bellevue,WA,Washington,47.5951,-122.1535
1840000460,Binghamton,NY,New York,42.1014,-75.9093
1840008187,Elkhart,IN,Indiana,41.6916,-85.9628
1840001621,Topeka,KS,Kansas,39.0346,-95.6955
1840008192,Joliet,IL,Illinois,41.5189,-88.1499
1840019612,Beaumont,TX,Texas,30.0849,-94.1451
1840000838,Paterson,NJ,New Jersey,40.9147,-74.1624
1840020313,Merced,CA,California,37.3057,-120.4778
1840020255,Pueblo,CO,Colorado,38.2705,-104.6112
1840022076,Tyler,TX,Texas,32.3184,-95.3062
1840021873,Torrance,CA,California,33.8346,-118.3417
1840021998,Yuma,AZ,Arizona,32.5992,-114.5488
1840013994,Metairie,LA,Louisiana,29.9977,-90.178
1840021941,Surprise,AZ,Arizona,33.68,-112.4524
1840007391,Columbia,MO,Missouri,38.9478,-92.3256
1840029463,Athens,GA,Georgia,33.9508,-83.3689
1840020233,Roseville,CA,California,38.7703,-121.3196
1840021422,Thornton,CO,Colorado,39.9197,-104.9438
1840015137,Miramar,FL,Florida,25.9773,-80.3351
1840020505,Pasadena,CA,California,34.1597,-118.139
1840020713,Mesquite,TX,Texas,32.7623,-96.5889
1840003833,Olathe,KS,Kansas,38.8832,-94.8198
1840021830,Santa Maria,CA,California,34.9334,-120.4432
1840015063,Houma,LA,Louisiana,29.5799,-90.7058
1840019436,Carrollton,TX,Texas,32.989,-96.8999
1840020230,Grand Junction,CO,Colorado,39.0876,-108.5673
1840006196,Charleston,WV,West Virginia,38.3484,-81.6323
1840020582,Orange,CA,California,33.8038,-117.8218
1840020576,Fullerton,CA,California,33.8841,-117.9279
1840020149,Greeley,CO,Colorado,40.4151,-104.7706
1630035637,Carolina,PR,Puerto Rico,18.4054,-65.9792
1840020683,Las Cruces,NM,New Mexico,32.3265,-106.7892
1840015034,Panama City,FL,Florida,30.1995,-85.6004
1840021036,Harlingen,TX,Texas,26.1917,-97.6976
1840021389,West Valley City,UT,Utah,40.6889,-112.0115
1840003866,Hampton,VA,Virginia,37.0551,-76.363
1840002418,Warren,MI,Michigan,42.4934,-83.027
1840015476,Mauldin,SC,South Carolina,34.7849,-82.3005
1840007207,Bloomington,IL,Illinois,40.4757,-88.9703
1840015134,Coral Springs,FL,Florida,26.2702,-80.2591
1840020879,Round Rock,TX,Texas,30.5254,-97.666
1840021154,Yakima,WA,Washington,46.5923,-120.5496
1840003094,Sterling Heights,MI,Michigan,42.5809,-83.0305
1840018424,Kent,WA,Washington,47.3887,-122.2129
1840013362,Burlington,NC,North Carolina,36.0758,-79.4686
1840018346,Bellingham,WA,Washington,48.7543,-122.4687
1840021571,Santa Clara,CA,California,37.3645,-121.968
1840002493,Racine,WI,Wisconsin,42.7274,-87.8135
1840013407,Greenville,NC,North Carolina,35.5956,-77.3768
1840004841,Stamford,CT,Connecticut,41.1035,-73.5583
1840003613,Elizabeth,NJ,New Jersey,40.6657,-74.1912
1840014462,Johnson City,TN,Tennessee,36.3406,-82.3803
1840003855,Lynchburg,VA,Virginia,37.4003,-79.1909
1840021843,Simi Valley,CA,California,34.2663,-118.749
1840013456,Fort Smith,AR,Arkansas,35.3493,-94.3695
1840003160,Kenosha,WI,Wisconsin,42.5864,-87.8765
1840020451,Norman,OK,Oklahoma,35.2335,-97.3471
1840002432,South Lyon,MI,Michigan,42.4614,-83.6526
1840018774,Boulder,CO,Colorado,40.0249,-105.2523
1840019476,Abilene,TX,Texas,32.4543,-99.7384
1840014220,Lehigh Acres,FL,Florida,26.612,-81.6388
1840020979,Pearland,TX,Texas,29.5585,-95.3215
1840018914,Berkeley,CA,California,37.8723,-122.276
1840020710,Richardson,TX,Texas,32.9717,-96.7093
1840020141,Redding,CA,California,40.5698,-122.365
1840018788,Arvada,CO,Colorado,39.8321,-105.1511
1840019206,East Los Angeles,CA,California,34.0326,-118.1691
1840021559,St. George,UT,Utah,37.077,-113.577
1840018496,Billings,MT,Montana,45.7891,-108.5524
1840021463,Yuba City,CA,California,39.1357,-121.6381
1840008987,Rochester,MN,Minnesota,44.0151,-92.4778
1840000437,Leominster,MA,Massachusetts,42.5209,-71.7717
1840014425,Kingsport,TN,Tennessee,36.5224,-82.5453
1840007685,Duluth,MN,Minnesota,46.7756,-92.1392
1840014618,Rock Hill,SC,South Carolina,34.9416,-81.0244
1840020327,Gilroy,CA,California,37.0047,-121.5855
1840000429,Cambridge,MA,Massachusetts,42.3759,-71.1185
1840022217,Sugar Land,TX,Texas,29.5935,-95.6357
1840022234,Texas City,TX,Texas,29.4128,-94.9658
1840000532,Iowa City,IA,Iowa,41.6559,-91.5303
1840002813,Saginaw,MI,Michigan,43.4199,-83.9501
1840018778,Chico,CA,California,39.7575,-121.8152
1840005810,Dover,DE,Delaware,39.161,-75.5203
1840015110,Clearwater,FL,Florida,27.9789,-82.7622
1840018402,Coeur d'Alene,ID,Idaho,47.7041,-116.7935
1840021634,Seaside,CA,California,36.6224,-121.8191
1840008534,Independence,MO,Missouri,39.0871,-94.3501
1840021388,West Jordan,UT,Utah,40.6024,-112.0008
1840014151,Brandon,FL,Florida,27.9367,-82.3
1840007376,Bloomington,IN,Indiana,39.1637,-86.5257
1840020480,El Monte,CA,California,34.0739,-118.0291
1840015164,North Charleston,SC,South Carolina,32.9066,-80.0722
1840019352,Carlsbad,CA,California,33.1247,-117.2837
1840008881,St. Cloud,MN,Minnesota,45.5339,-94.1718
1840021937,Temecula,CA,California,33.4928,-117.1315
1840018944,Clovis,CA,California,36.8278,-119.6831
1840020046,Meridian,ID,Idaho,43.6112,-116.3968
1840019585,The Woodlands,TX,Texas,30.1738,-95.5134
1630023669,Ponce,PR,Puerto Rico,18.012,-66.6198
1840021423,Westminster,CO,Colorado,39.8837,-105.0624
1840019326,Costa Mesa,CA,California,33.6667,-117.9135
1840014881,Monroe,LA,Louisiana,32.5183,-92.0774
1840002746,Utica,NY,New York,43.0961,-75.226
1840015143,Pompano Beach,FL,Florida,26.2428,-80.1312
1840015993,West Palm Beach,FL,Florida,26.7468,-80.1316
1840000440,Waterloo,IA,Iowa,42.492,-92.3522
1840019785,Everett,WA,Washington,47.9525,-122.1669
1840020630,El Centro,CA,California,32.7867,-115.5586
1840021707,Santa Fe,NM,New Mexico,35.6619,-105.9819
1840019245,Downey,CA,California,33.9379,-118.1312
1840014105,Spring Hill,FL,Florida,28.4797,-82.53
1840000426,Lowell,MA,Massachusetts,42.6389,-71.3217
1840018792,Centennial,CO,Colorado,39.5926,-104.8674
1840008134,Elgin,IL,Illinois,42.0385,-88.3229
1840020277,Richmond,CA,California,37.9477,-122.339
1840019059,Broken Arrow,OK,Oklahoma,36.0365,-95.7809
1840015151,Miami Gardens,FL,Florida,25.9433,-80.2426
1840018618,Bend,OR,Oregon,44.0562,-121.3087
1840002310,Burlington,VT,Vermont,44.4877,-73.2314
1840043419,Jurupa Valley,CA,California,34.001,-117.4705
1840015609,Sandy Springs,GA,Georgia,33.9366,-84.3703
1840019939,Gresham,OR,Oregon,45.5023,-122.4413
1840020639,Lewisville,TX,Texas,33.0452,-96.9823
1840019932,Hillsboro,OR,Oregon,45.5272,-122.9361
1840037414,San Buenaventura,CA,California,34.2741,-119.2314
1840014653,Jacksonville,NC,North Carolina,34.7288,-77.3941
1840001373,Pottstown,PA,Pennsylvania,40.2507,-75.6444
1840019237,Inglewood,CA,California,33.9566,-118.3444
1840020973,League City,TX,Texas,29.4873,-95.1087
1840002296,Eau Claire,WI,Wisconsin,44.8199,-91.4949
1840021533,Turlock,CA,California,37.5053,-120.8588
1840022154,Temple,TX,Texas,31.1076,-97.3894
1840000447,Sioux City,IA,Iowa,42.4959,-96.3901
1840006219,Salisbury,MD,Maryland,38.3756,-75.5867
1840017272,Davie,FL,Florida,26.0789,-80.287
1840018926,Daly City,CA,California,37.6862,-122.4685
1840028579,Highlands Ranch,CO,Colorado,39.5419,-104.9708
1840019396,Allen,TX,Texas,33.1088,-96.6735
1840021876,West Covina,CA,California,34.0555,-117.9112
1840021337,Sparks,NV,Nevada,39.5729,-119.7157
1840021923,Wichita Falls,TX,Texas,33.9072,-98.5291
1840021551,San Mateo,CA,California,37.5521,-122.3122
1840005803,Columbia,MD,Maryland,39.2004,-76.859
1840020501,Norwalk,CA,California,33.9069,-118.0829
1840020407,Rialto,CA,California,34.1174,-117.3894
1840020265,Manteca,CA,California,37.7927,-121.2264
1840036690,Arden-Arcade,CA,California,38.6034,-121.381
1840020618,El Cajon,CA,California,32.8017,-116.9605
1840019233,Burbank,CA,California,34.1879,-118.3235
1840020178,Longmont,CO,Colorado,40.1686,-105.1005
1840019827,Renton,WA,Washington,47.4784,-122.1919
1840021994,Vista,CA,California,33.1896,-117.2386
1840020108,Logan,UT,Utah,41.74,-111.8419
1840021772,Prescott Valley,AZ,Arizona,34.5983,-112.3176
1840021498,Vacaville,CA,California,38.359,-121.968
1840021020,Edinburg,TX,Texas,26.3197,-98.1596
1840007260,Carmel,IN,Indiana,39.965,-86.146
1840021094,Spokane Valley,WA,Washington,47.6626,-117.2346
1840022146,San Angelo,TX,Texas,31.4424,-100.4506
1840002577,La Crosse,WI,Wisconsin,43.824,-91.2268
1840018644,Idaho Falls,ID,Idaho,43.4872,-112.0362
1840002996,Holland,MI,Michigan,42.7677,-86.0985
1840001678,Charlottesville,VA,Virginia,38.0375,-78.4855
1840020746,Longview,TX,Texas,32.5193,-94.7621
1840021518,Tracy,CA,California,37.7269,-121.4522
1840014207,Boca Raton,FL,Florida,26.3752,-80.108
1840020180,Lafayette,CO,Colorado,39.9949,-105.0997
1840032155,Lee's Summit,MO,Missouri,38.9172,-94.3816
1840020387,Rio Rancho,NM,New Mexico,35.2872,-106.6981
1840029465,South Fulton,GA,Georgia,33.6269,-84.5802
1840018556,Beaverton,OR,Oregon,45.4779,-122.8168
1840001632,Lawrence,KS,Kansas,38.9597,-95.2641
1840001926,Bismarck,ND,North Dakota,46.8144,-100.7694
1840020171,Orem,UT,Utah,40.2983,-111.6992
1840003804,Middletown,OH,Ohio,39.5032,-84.366
1840027990,San Tan Valley,AZ,Arizona,33.1879,-111.5472
1840021991,San Marcos,CA,California,33.135,-117.1744
1840037422,Sandy,UT,Utah,40.571,-111.8505
1840019826,Federal Way,WA,Washington,47.3091,-122.3358
1840015909,Mandeville,LA,Louisiana,30.3751,-90.0904
1840020404,Hesperia,CA,California,34.3975,-117.3147
1840000467,Brockton,MA,Massachusetts,42.0821,-71.0242
1840019240,Compton,CA,California,33.893,-118.2275
1840014158,Riverview,FL,Florida,27.8227,-82.3023
1840010496,Fishers,IN,Indiana,39.9589,-85.9661
1840016000,Sunrise,FL,Florida,26.1547,-80.2997
1840013265,Bowling Green,KY,Kentucky,36.9719,-86.4373
1840014741,Roswell,GA,Georgia,34.0391,-84.3513
1840022903,Menifee,CA,California,33.6909,-117.1849
1840015142,Plantation,FL,Florida,26.126,-80.2617
1840002808,Dover,NH,New Hampshire,43.1887,-70.8845
1840000461,Quincy,MA,Massachusetts,42.2516,-71.0183
1840003872,Portsmouth,VA,Virginia,36.8468,-76.354
1840019114,Chino,CA,California,33.9836,-117.6654
1840000409,Lynn,MA,Massachusetts,42.4779,-70.9663
1840020423,Edmond,OK,Oklahoma,35.6689,-97.4159
1840020382,Hanford,CA,California,36.3274,-119.6549
1840003969,Dearborn,MI,Michigan,42.3127,-83.2129
1840003985,Livonia,MI,Michigan,42.3972,-83.3733
1840021870,South Gate,CA,California,33.9448,-118.1926
1840001551,Vineland,NJ,New Jersey,39.4653,-74.9981
1840013643,Florence,SC,South Carolina,34.1781,-79.7877
1840002932,Portsmouth,NH,New Hampshire,43.058,-70.7826
1840015911,Slidell,LA,Louisiana,30.2881,-89.7826
1840020477,Lawton,OK,Oklahoma,34.6176,-98.4203
1840019836,Kirkland,WA,Washington,47.6974,-122.2054
1840019840,Missoula,MT,Montana,46.875,-114.0214
1840013810,Auburn,AL,Alabama,32.6087,-85.4899
1840002180,Rapid City,SD,South Dakota,44.0716,-103.2204
1840009671,Terre Haute,IN,Indiana,39.4654,-87.3763
1840003873,Suffolk,VA,Virginia,36.6953,-76.6398
1840006446,Blacksburg,VA,Virginia,37.23,-80.4279
1840017286,Mount Pleasant,SC,South Carolina,32.8538,-79.8204
1840019214,Carson,CA,California,33.8374,-118.2559
1840019586,Conroe,TX,Texas,30.3239,-95.4825
1840029102,Alafaya,FL,Florida,28.5278,-81.1865
1840020294,Livermore,CA,California,37.6862,-121.7608
1840021969,Westminster,CA,California,33.7523,-117.9938
1840005840,Germantown,MD,Maryland,39.1755,-77.2643
1840021866,Santa Monica,CA,California,34.0232,-118.4813
1840021341,New Braunfels,TX,Texas,29.6994,-98.1148
1840000497,Fall River,MA,Massachusetts,41.7137,-71.1014
1840013864,Albany,GA,Georgia,31.5776,-84.1762
1840015150,Miami Beach,FL,Florida,25.8171,-80.1396
1840004839,Norwalk,CT,Connecticut,41.1144,-73.4215
1840021538,San Leandro,CA,California,37.7071,-122.1601
1840008571,O'Fallon,MO,Missouri,38.785,-90.7175
1840000433,Newton,MA,Massachusetts,42.3316,-71.2085
1840008365,Muncie,IN,Indiana,40.1989,-85.395
1840018845,Citrus Heights,CA,California,38.6948,-121.288
1840000830,State College,PA,Pennsylvania,40.7909,-77.8568
1840029089,Town 'n' Country,FL,Florida,28.0108,-82.576
1840007269,Decatur,IL,Illinois,39.8556,-88.9337
1840003173,Jackson,MI,Michigan,42.2431,-84.4037
1840014226,Fort Myers,FL,Florida,26.6195,-81.8303
1840020564,Goodyear,AZ,Arizona,33.2613,-112.3622
1840014651,Dalton,GA,Georgia,34.769,-84.9712
1840019569,Bryan,TX,Texas,30.6657,-96.3668
1840010113,Waukegan,IL,Illinois,42.3697,-87.8716
1840020486,Hawthorne,CA,California,33.9146,-118.3476
1840007242,Anderson,IN,Indiana,40.0891,-85.6893
1840020304,Redwood City,CA,California,37.5026,-122.2252
1840014795,Hoover,AL,Alabama,33.3754,-86.8064
1840020591,Lake Forest,CA,California,33.6606,-117.6712
1840020241,Napa,CA,California,38.2976,-122.3011
1840021878,Whittier,CA,California,33.9678,-118.0188
1840003511,Clifton,NJ,New Jersey,40.8631,-74.1575
1840015114,Largo,FL,Florida,27.9088,-82.7711
1840006747,Bloomington,MN,Minnesota,44.8306,-93.3151
1840014742,Johns Creek,GA,Georgia,34.0333,-84.2027
1840020581,Newport Beach,CA,California,33.6151,-117.8669
1840021026,Mission,TX,Texas,26.2041,-98.3251
1840020329,Milpitas,CA,California,37.4339,-121.8921
1840002434,Troy,MI,Michigan,42.5818,-83.1457
1840020300,Madera,CA,California,36.9631,-120.0782
1840008771,Joplin,MO,Missouri,37.0758,-94.5018
1840019115,Chino Hills,CA,California,33.9508,-117.7253
1840019222,Alhambra,CA,California,34.084,-118.1355
1840013380,Franklin,TN,Tennessee,35.9216,-86.8525
1840015960,Melbourne,FL,Florida,28.1085,-80.6627
1840003953,Port Huron,MI,Michigan,42.9822,-82.4387
1840003765,Springfield,OH,Ohio,39.9297,-83.7957
1840020332,Mountain View,CA,California,37.4,-122.0796
1840015968,Zephyrhills,FL,Florida,28.2408,-82.1796
1840015935,St. Augustine,FL,Florida,29.8977,-81.31
1840020335,Flagstaff,AZ,Arizona,35.1872,-111.6195
1840019324,Buena Park,CA,California,33.8572,-118.0046
1840020298,Pleasanton,CA,California,37.6663,-121.8805
1840005845,Silver Spring,MD,Maryland,39.0028,-77.0207
1840018251,Atascocita,TX,Texas,29.9777,-95.1953
1840001847,Westland,MI,Michigan,42.3192,-83.3805
1840018416,Auburn,WA,Washington,47.3039,-122.2108
1840003287,Cranston,RI,Rhode Island,41.7658,-71.4857
1840003123,Somerville,MA,Massachusetts,42.3908,-71.1013
1840020246,Folsom,CA,California,38.6668,-121.1422
1840015336,Springdale,AR,Arkansas,36.1899,-94.1574
1840015136,Deerfield Beach,FL,Florida,26.305,-80.1277
1840003344,Warwick,RI,Rhode Island,41.7062,-71.4334
1840009186,Cicero,IL,Illinois,41.8445,-87.7593
1840002442,Farmington Hills,MI,Michigan,42.486,-83.3771
1840001419,Newark,OH,Ohio,40.0705,-82.4251
1840001720,Williamsburg,VA,Virginia,37.2692,-76.7076
1840004023,Brooklyn Park,MN,Minnesota,45.1112,-93.3505
1840013878,Hattiesburg,MS,Mississippi,31.3074,-89.317
1840013873,Alexandria,LA,Louisiana,31.2923,-92.4702
1840000408,Lawrence,MA,Massachusetts,42.7003,-71.1626
1840002083,Florence,AL,Alabama,34.8303,-87.6654
1840015894,Valdosta,GA,Georgia,30.8502,-83.2788
1840008929,Plymouth,MN,Minnesota,45.0225,-93.4618
1840021939,Buckeye,AZ,Arizona,33.4314,-112.6429
1840020875,Georgetown,TX,Texas,30.6668,-97.6953
1840018713,Cheyenne,WY,Wyoming,41.1351,-104.79
1840019572,Cedar Park,TX,Texas,30.5106,-97.8196
1840014065,The Villages,FL,Florida,28.9021,-81.9888
1840013844,Kokomo,IN,Indiana,40.464,-86.1277
1840021967,Tustin,CA,California,33.7309,-117.8106
1840020515,Lakewood,CA,California,33.8471,-118.1221
1840020557,Perris,CA,California,33.7899,-117.2233
1840009549,St. Joseph,MO,Missouri,39.7599,-94.821
1840022010,Flower Mound,TX,Texas,33.0344,-97.1146
1840021030,Pharr,TX,Texas,26.1685,-98.1904
1840014098,Pine Hills,FL,Florida,28.5818,-81.4693
1840007424,Alton,IL,Illinois,38.9034,-90.1523
1840020152,Loveland,CO,Colorado,40.4166,-105.0623
1840014208,Boynton Beach,FL,Florida,26.5281,-80.0811
1840000782,New Rochelle,NY,New York,40.9305,-73.7836
1840013579,Anderson,SC,South Carolina,34.5211,-82.6479
1840014507,Jonesboro,AR,Arkansas,35.8212,-90.6791
1840001347,Lebanon,PA,Pennsylvania,40.3412,-76.4227
1840003406,Parma,OH,Ohio,41.3843,-81.7286
1840020145,Layton,UT,Utah,41.0769,-111.9621
1840013218,Elizabethtown,KY,Kentucky,37.703,-85.877
1840021987,Texarkana,TX,Texas,33.4487,-94.0815
1840018913,Alameda,CA,California,37.767,-122.2672
1840008260,Kankakee,IL,Illinois,41.1019,-87.8643
1840021581,Watsonville,CA,California,36.9206,-121.7706
1840020368,Porterville,CA,California,36.0644,-119.0338
1840019616,Baytown,TX,Texas,29.7586,-94.9669
1840021730,Upland,CA,California,34.1178,-117.6603
1840018833,Davis,CA,California,38.5552,-121.7365
1840019201,Camarillo,CA,California,34.223,-119.0322
1840021385,South Jordan,UT,Utah,40.557,-111.9782
1840003176,Battle Creek,MI,Michigan,42.2986,-85.2296
1840019230,Bellflower,CA,California,33.888,-118.1271
1840022188,San Marcos,TX,Texas,29.8736,-97.9381
1840021530,San Ramon,CA,California,37.7625,-121.9365
1840020980,Lake Jackson,TX,Texas,29.0516,-95.4522
1840000986,Bethlehem,PA,Pennsylvania,40.6266,-75.3679
1840000374,Wyoming,MI,Michigan,42.8909,-85.7066
1840002246,Oshkosh,WI,Wisconsin,44.0228,-88.5619
1840007092,Hammond,IN,Indiana,41.6169,-87.491
1840006175,Waldorf,MD,Maryland,38.6085,-76.9195
1840020950,Missouri City,TX,Texas,29.563,-95.5365
1840019888,Pasco,WA,Washington,46.2506,-119.1304
1840005510,Wheeling,WV,West Virginia,40.0752,-80.6951
1840014244,Kendall,FL,Florida,25.6697,-80.3556
1840019227,Baldwin Park,CA,California,34.0829,-117.9721
1840020248,Rancho Cordova,CA,California,38.574,-121.2523
1840014598,Conway,AR,Arkansas,35.0754,-92.4694
1840008194,Gary,IN,Indiana,41.5906,-87.3472
1840001080,Altoona,PA,Pennsylvania,40.5082,-78.4007
1840020263,Lodi,CA,California,38.1218,-121.2932
1840011243,Arlington Heights,IL,Illinois,42.0955,-87.9825
1840011482,Bolingbrook,IL,Illinois,41.6903,-88.1019
1840002429,Rochester Hills,MI,Michigan,42.6645,-83.1563
1840001623,Winchester,VA,Virginia,39.1735,-78.1746
1840003131,Framingham,MA,Massachusetts,42.3085,-71.4368
1840016974,Hilton Head Island,SC,South Carolina,32.1896,-80.7499
1840006015,Centreville,VA,Virginia,38.8391,-77.4388
1840021539,Union City,CA,California,37.603,-122.0187
1840014340,Owensboro,KY,Kentucky,37.7574,-87.1173
1840014528,Jackson,TN,Tennessee,35.6535,-88.8353
1840014603,Cleveland,TN,Tennessee,35.1817,-84.8707
1840002163,Wausau,WI,Wisconsin,44.962,-89.6459
1840001507,Camden,NJ,New Jersey,39.9362,-75.1073
1840006563,Anniston,AL,Alabama,33.6712,-85.8136
1840008129,Evanston,IL,Illinois,42.0463,-87.6942
1840021733,Apple Valley,CA,California,34.5328,-117.2104
1840000960,Mansfield,OH,Ohio,40.7656,-82.5275
1630023540,Caguas,PR,Puerto Rico,18.2319,-66.0388
1840011319,Schaumburg,IL,Illinois,42.0307,-88.0838
1840013376,Pocatello,ID,Idaho,42.8724,-112.4646
1840009998,Woodbury,MN,Minnesota,44.9056,-92.923
1840002431,Southfield,MI,Michigan,42.4765,-83.2605
1840005802,Ellicott City,MD,Maryland,39.2773,-76.8344
1840006094,Dale City,VA,Virginia,38.6473,-77.3459
1840008923,Maple Grove,MN,Minnesota,45.1089,-93.4626
1840020282,Pittsburg,CA,California,38.0182,-121.8964
1840004774,New Britain,CT,Connecticut,41.6758,-72.7862
1840005647,Morgantown,WV,West Virginia,39.638,-79.9468
1840020702,Mansfield,TX,Texas,32.569,-97.1211
1840013908,Hammond,LA,Louisiana,30.5061,-90.4563
1840001518,Dothan,AL,Alabama,31.2335,-85.4069
1840003844,Harrisonburg,VA,Virginia,38.4361,-78.8735
1840021074,Wenatchee,WA,Washington,47.4356,-120.3283
1840003008,Waukesha,WI,Wisconsin,43.0087,-88.2464
1840003285,Pawtucket,RI,Rhode Island,41.8744,-71.3743
1840019835,Redmond,WA,Washington,47.6762,-122.1169
1840015146,Lauderhill,FL,Florida,26.1605,-80.2242
1840015612,Sumter,SC,South Carolina,33.9392,-80.393
1840020412,Redlands,CA,California,34.0511,-117.1712
1840006178,Daphne,AL,Alabama,30.6286,-87.8866
1840019774,Mount Vernon,WA,Washington,48.4202,-122.3115
1840016003,Weston,FL,Florida,26.1006,-80.4054
1840009719,St. Charles,MO,Missouri,38.7954,-90.5157
1840002467,Janesville,WI,Wisconsin,42.6855,-89.0136
1840021953,Sherman,TX,Texas,33.6274,-96.6218
1840020703,North Richland Hills,TX,Texas,32.8605,-97.218
1840018781,Broomfield,CO,Colorado,39.9541,-105.0527
1840074847,El Paso de Robles,CA,California,35.6394,-120.656
1840013301,Bristol,TN,Tennessee,36.5572,-82.2154
1840005579,Wilmington,DE,Delaware,39.7415,-75.5413
1840018108,Casas Adobes,AZ,Arizona,32.3423,-111.0114
1840021531,Walnut Creek,CA,California,37.9024,-122.0398
1840014132,Poinciana,FL,Florida,28.1217,-81.482
1840020492,Lynwood,CA,California,33.924,-118.2017
1840005917,Glen Burnie,MD,Maryland,39.1559,-76.6072
1840020168,Lehi,UT,Utah,40.4136,-111.8726
1840000837,Passaic,NJ,New Jersey,40.8574,-74.1282
1840015159,Homestead,FL,Florida,25.4665,-80.4472
1840002829,West Bend,WI,Wisconsin,43.4184,-88.1824
1840015123,Delray Beach,FL,Florida,26.455,-80.0905
1840002628,Sheboygan,WI,Wisconsin,43.7403,-87.7316
1840020560,Lake Elsinore,CA,California,33.6847,-117.3344
1840015068,Daytona Beach,FL,Florida,29.1994,-81.0982
1840022814,Los Lunas,NM,New Mexico,34.8115,-106.7803
1840002785,Lima,OH,Ohio,40.741,-84.1121
1840001403,Decatur,AL,Alabama,34.573,-86.9906
1840020232,Rocklin,CA,California,38.8075,-121.2488
1840014444,Rogers,AR,Arkansas,36.3172,-94.1526
1840022455,Castle Rock,CO,Colorado,39.3763,-104.8535
1840001450,Hanover,PA,Pennsylvania,39.8117,-76.9835
1840013790,Bossier City,LA,Louisiana,32.5227,-93.6666
1840000438,Dubuque,IA,Iowa,42.5008,-90.7067
1840005849,Rockville,MD,Maryland,39.0834,-77.1552
1840023044,Victoria,TX,Texas,28.8285,-96.985
1840000369,Saratoga Springs,NY,New York,43.0674,-73.7775
1630023575,Guaynabo,PR,Puerto Rico,18.3839,-66.1134
1840005848,Gaithersburg,MD,Maryland,39.1346,-77.2132
1840001034,Union City,NJ,New Jersey,40.7674,-74.0323
1840007019,Ames,IA,Iowa,42.0259,-93.6215
1840010185,West Des Moines,IA,Iowa,41.5522,-93.7805
1840021552,South San Francisco,CA,California,37.6536,-122.4197
1840021970,Yorba Linda,CA,California,33.889,-117.7714
1840038324,Casper,WY,Wyoming,42.842,-106.3207
1840011311,Palatine,IL,Illinois,42.1181,-88.043
1840018611,Corvallis,OR,Oregon,44.5697,-123.278
1840007066,Ankeny,IA,Iowa,41.7285,-93.6033
1840000781,Mount Vernon,NY,New York,40.9136,-73.8291
1840020711,Rowlett,TX,Texas,32.9157,-96.5488
1840007859,Lakeville,MN,Minnesota,44.6774,-93.252
1840013659,Alpharetta,GA,Georgia,34.0704,-84.2739
1840019904,Longview,WA,Washington,46.1461,-122.9629
1840007033,DeKalb,IL,Illinois,41.9313,-88.7482
1840020244,Petaluma,CA,California,38.2423,-122.6267
1840020509,Redondo Beach,CA,California,33.8574,-118.3766
1840016001,Tamarac,FL,Florida,26.2056,-80.2542
1840020589,Laguna Niguel,CA,California,33.5275,-117.705
1840007852,Eagan,MN,Minnesota,44.8169,-93.1638
1840015047,Kenner,LA,Louisiana,30.0109,-90.2549
1840002583,Bay City,MI,Michigan,43.5903,-83.8886
1840014632,North Little Rock,AR,Arkansas,34.7808,-92.2371
1840021115,Sammamish,WA,Washington,47.6017,-122.0416
1840001641,Shawnee,KS,Kansas,39.0158,-94.8076
1840017255,Jupiter,FL,Florida,26.9199,-80.1128
1840015148,Doral,FL,Florida,25.8151,-80.3565
1840037057,Florence-Graham,CA,California,33.9682,-118.2447
1840007560,Carbondale,IL,Illinois,37.7221,-89.2238
1840006719,Blaine,MN,Minnesota,45.1696,-93.2077
1840005405,Weirton,WV,West Virginia,40.406,-80.5671
1840021638,Tulare,CA,California,36.1996,-119.34
1840018311,Wellington,FL,Florida,26.6461,-80.2699
1840020892,Pflugerville,TX,Texas,30.452,-97.6022
1840020333,Palo Alto,CA,California,37.3913,-122.1468
1840000395,Schenectady,NY,New York,42.8025,-73.9276
1840019839,Great Falls,MT,Montana,47.5022,-111.2995
1840013869,Michigan City,IN,Indiana,41.7099,-86.8705
1840003595,Bayonne,NJ,New Jersey,40.6661,-74.1141
1840007821,Eden Prairie,MN,Minnesota,44.8488,-93.4595
1840015077,Port Orange,FL,Florida,29.1084,-81.0137
1840018916,Dublin,CA,California,37.7161,-121.8963
1840000101,Grand Forks,ND,North Dakota,47.9218,-97.0886
1840013891,Noblesville,IN,Indiana,40.0354,-86.0042
1840021962,San Clemente,CA,California,33.4498,-117.6103
1840018904,Brentwood,CA,California,37.9355,-121.7191
1840017579,Carmichael,CA,California,38.6337,-121.323
1840002792,East Orange,NJ,New Jersey,40.7651,-74.2117
1840028421,Eastvale,CA,California,33.9617,-117.5802
1840016152,Chapel Hill,NC,North Carolina,35.927,-79.0391
1840014490,Rocky Mount,NC,North Carolina,35.9676,-77.8048
1840002450,Haverhill,MA,Massachusetts,42.7838,-71.0871
1840002471,Beloit,WI,Wisconsin,42.523,-89.0184
1840000345,Glens Falls,NY,New York,43.3109,-73.6459
1840005021,Brentwood,NY,New York,40.7839,-73.2522
1840023463,Fairbanks,AK,Alaska,64.8353,-147.6534
1840021263,Springfield,OR,Oregon,44.0538,-122.981
1840005826,Bethesda,MD,Maryland,38.9866,-77.1188
1840001116,Johnstown,PA,Pennsylvania,40.3258,-78.9193
1840005681,Dundalk,MD,Maryland,39.2703,-76.4942
1840017620,Castro Valley,CA,California,37.7091,-122.0631
1840006714,Coon Rapids,MN,Minnesota,45.1755,-93.3095
1840000472,Elmira,NY,New York,42.0938,-76.8097
1840008975,Mankato,MN,Minnesota,44.1712,-93.9773
1840018605,Albany,OR,Oregon,44.6274,-123.0966
1840015154,North Miami,FL,Florida,25.9007,-80.1686
1840020619,Encinitas,CA,California,33.049,-117.2613
1840011321,Skokie,IL,Illinois,42.0359,-87.74
1840020877,Leander,TX,Texas,30.5728,-97.8618
1840005786,Parkersburg,WV,West Virginia,39.2624,-81.542
1840000428,Waltham,MA,Massachusetts,42.3889,-71.2423
1840014200,Port Charlotte,FL,Florida,26.9918,-82.114
1840014143,Palm Harbor,FL,Florida,28.0847,-82.7481
1840021734,San Luis Obispo,CA,California,35.2669,-120.6691
1840015986,Sebring,FL,Florida,27.477,-81.453
1840007117,Council Bluffs,IA,Iowa,41.2369,-95.8517
1840003803,Hamilton,OH,Ohio,39.3938,-84.5653
1840020449,Moore,OK,Oklahoma,35.3293,-97.4758
1840020506,Pico Rivera,CA,California,33.9902,-118.0888
1840019364,Casa Grande,AZ,Arizona,32.9068,-111.7624
1840001146,Monessen,PA,Pennsylvania,40.1519,-79.8828
1840020499,Montebello,CA,California,34.0155,-118.1108
1840014681,Rome,GA,Georgia,34.2661,-85.1862
1840029009,The Hammocks,FL,Florida,25.67,-80.4483
1840018744,Millcreek,UT,Utah,40.6892,-111.8291
1840015958,Sanford,FL,Florida,28.7893,-81.276
1840020622,National City,CA,California,32.6654,-117.0983
1630035520,Mayagüez,PR,Puerto Rico,18.2003,-67.1397
1840006766,Burnsville,MN,Minnesota,44.7648,-93.2795
1840015132,Coconut Creek,FL,Florida,26.2803,-80.1842
1840014467,Morristown,TN,Tennessee,36.2046,-83.3006
1840006025,Reston,VA,Virginia,38.9497,-77.3461
1840019860,Lakewood,WA,Washington,47.1628,-122.5299
1840019615,Spring,TX,Texas,30.0613,-95.383
1840006332,Gadsden,AL,Alabama,34.009,-86.0156
1840003965,Taylor,MI,Michigan,42.226,-83.2688
1840002423,Novi,MI,Michigan,42.4786,-83.4893
1840015633,Marietta,GA,Georgia,33.9533,-84.5422
1840014670,Hot Springs,AR,Arkansas,34.4892,-93.0501
1840021485,Woodland,CA,California,38.6712,-121.75
1840028983,Fountainebleau,FL,Florida,25.7723,-80.3458
1840020585,La Habra,CA,California,33.9278,-117.9513
1840000430,Malden,MA,Massachusetts,42.4305,-71.0576
1840019209,South Whittier,CA,California,33.9336,-118.0311
1840018785,Commerce City,CO,Colorado,39.8642,-104.8434
1840037886,South Hill,WA,Washington,47.1203,-122.2848
1840004772,Bristol,CT,Connecticut,41.6812,-72.9407
1840013714,Columbus,IN,Indiana,39.2093,-85.9183
1840003034,West Allis,WI,Wisconsin,43.0068,-88.0296
1840021387,Taylorsville,UT,Utah,40.657,-111.9493
1840000238,Bangor,ME,Maine,44.8322,-68.7906
1840020500,Monterey Park,CA,California,34.0497,-118.1326
1840007332,Greenwood,IN,Indiana,39.6019,-86.1073
1840013472,Bartlett,TN,Tennessee,35.2337,-89.8195
1840014173,Bradenton,FL,Florida,27.49,-82.5739
1840002427,Pontiac,MI,Michigan,42.6493,-83.2878
1840001670,Staunton,VA,Virginia,38.1593,-79.0611
1840004848,Meriden,CT,Connecticut,41.5367,-72.7944
1840020482,Gardena,CA,California,33.8944,-118.3073
1840015355,Apex,NC,North Carolina,35.7239,-78.8728
1840002430,Royal Oak,MI,Michigan,42.5084,-83.1539
1840018950,Cupertino,CA,California,37.3168,-122.0465
1840020625,La Mesa,CA,California,32.7703,-117.0204
1840003215,Benton Harbor,MI,Michigan,42.1159,-86.4488
1840003093,St. Clair Shores,MI,Michigan,42.4921,-82.8957
1840007032,Des Plaines,IL,Illinois,42.0345,-87.9009
1840000320,Lewiston,ME,Maine,44.0915,-70.1681
1840015999,Margate,FL,Florida,26.2466,-80.2119
1840002660,Midland,MI,Michigan,43.6241,-84.2319
1840003826,Carson City,NV,Nevada,39.1512,-119.7474
1840005970,Bowie,MD,Maryland,38.9569,-76.7409
1840000585,Middletown,NY,New York,41.4459,-74.4236
1840018641,Caldwell,ID,Idaho,43.6453,-116.6591
1840021513,San Rafael,CA,California,37.9905,-122.5222
1840019889,Richland,WA,Washington,46.2824,-119.2938
1840009721,St. Peters,MO,Missouri,38.7824,-90.6061
1840014118,Wesley Chapel,FL,Florida,28.2106,-82.3238
1840014419,Hendersonville,TN,Tennessee,36.3063,-86.5998
1840003477,White Plains,NY,New York,41.022,-73.7549
1840016349,Huntersville,NC,North Carolina,35.4058,-80.8727
1840021992,Santee,CA,California,32.8554,-116.9851
1840008615,Jefferson City,MO,Missouri,38.5676,-92.1759
1840006350,Beckley,WV,West Virginia,37.7878,-81.1841
1840019223,Arcadia,CA,California,34.1342,-118.0373
1840015962,Titusville,FL,Florida,28.5727,-80.8193
1840014701,Cartersville,GA,Georgia,34.1639,-84.8007
1840021174,Walla Walla,WA,Washington,46.067,-118.3366
1840011310,Orland Park,IL,Illinois,41.6074,-87.8619
1840005695,Towson,MD,Maryland,39.3944,-76.619
1840132442,Weymouth,MA,Massachusetts,42.1984,-70.9466
1840022454,Parker,CO,Colorado,39.5084,-104.7753
1840015125,Palm Beach Gardens,FL,Florida,26.8466,-80.1679
1840018509,Bozeman,MT,Montana,45.6832,-111.0552
1840003507,East Stroudsburg,PA,Pennsylvania,41.0023,-75.1779
1840019235,Huntington Park,CA,California,33.98,-118.2167
1840003220,Taunton,MA,Massachusetts,41.9036,-71.0943
1840020425,Midwest City,OK,Oklahoma,35.463,-97.3709
1840000431,Medford,MA,Massachusetts,42.4234,-71.1087
1840013432,Goldsboro,NC,North Carolina,35.3778,-77.972
1840020693,Euless,TX,Texas,32.8508,-97.0799
1840001589,Manhattan,KS,Kansas,39.1886,-96.6046
1840021118,Shoreline,WA,Washington,47.7564,-122.3426
1840021044,Lake Havasu City,AZ,Arizona,34.5006,-114.3113
1840015634,Smyrna,GA,Georgia,33.8633,-84.5168
1840007598,Cape Girardeau,MO,Missouri,37.3108,-89.5597
1840029085,Tamiami,FL,Florida,25.7556,-80.4016
1840029045,Kendale Lakes,FL,Florida,25.7081,-80.4078
1840020087,Grants Pass,OR,Oregon,42.4333,-123.3317
1840007396,Blue Springs,MO,Missouri,39.0124,-94.2721
1840015519,Southaven,MS,Mississippi,34.9514,-89.9787
1840011331,Tinley Park,IL,Illinois,41.567,-87.805
1840019244,Diamond Bar,CA,California,33.9991,-117.8161
1840003116,Pittsfield,MA,Massachusetts,42.4517,-73.2605
1840019690,Eagle Pass,TX,Texas,28.7125,-100.484
1840001339,New Brunswick,NJ,New Jersey,40.487,-74.445
1840001639,Lenexa,KS,Kansas,38.9609,-94.8018
1840000753,Hazleton,PA,Pennsylvania,40.9504,-75.9724
1840021301,Twin Falls,ID,Idaho,42.5645,-114.4615
1840029224,Brookhaven,GA,Georgia,33.8744,-84.3314
1840020260,Novato,CA,California,38.092,-122.5576
1840021206,Tigard,OR,Oregon,45.4237,-122.7845
1840020405,Highland,CA,California,34.1113,-117.1654
1840020575,Fountain Valley,CA,California,33.7105,-117.9514
1840003970,Dearborn Heights,MI,Michigan,42.3164,-83.2769
1840020697,Grapevine,TX,Texas,32.9343,-97.0744
1840002603,Fond du Lac,WI,Wisconsin,43.7718,-88.4396
1840017921,Hacienda Heights,CA,California,33.997,-117.9728
1840000442,Ithaca,NY,New York,42.4442,-76.5032
1840006768,Apple Valley,MN,Minnesota,44.7457,-93.2006
1840000462,Chicopee,MA,Massachusetts,42.1764,-72.5719
1840011306,Oak Lawn,IL,Illinois,41.7139,-87.7528
1840019293,Cathedral City,CA,California,33.8363,-116.4642
1840019151,Delano,CA,California,35.767,-119.2637
1840013319,Bentonville,AR,Arkansas,36.3546,-94.2306
1840029466,Stonecrest,GA,Georgia,33.6842,-84.1372
1840003783,Kettering,OH,Ohio,39.6957,-84.1495
1840019120,Colton,CA,California,34.0538,-117.3254
1840000493,Kingston,NY,New York,41.9295,-73.9968
1840004852,West Haven,CT,Connecticut,41.2739,-72.9672
1840015971,St. Cloud,FL,Florida,28.2294,-81.2829
1840009401,Normal,IL,Illinois,40.5218,-88.9881
1840007027,Berwyn,IL,Illinois,41.8433,-87.7909
1840028594,Milford,CT,Connecticut,41.2256,-73.0616
1840017414,Aloha,OR,Oregon,45.492,-122.8726
1840019125,Arroyo Grande,CA,California,35.1241,-120.5845
1840007831,Minnetonka,MN,Minnesota,44.9322,-93.4598
1840020495,Rosemead,CA,California,34.0689,-118.0823
1840020504,Paramount,CA,California,33.8976,-118.1652
1840021732,Yucaipa,CA,California,34.0336,-117.0429
1840013875,Brunswick,GA,Georgia,31.145,-81.474
1840000637,Williamsport,PA,Pennsylvania,41.2398,-77.0371
1840000643,Elyria,OH,Ohio,41.3761,-82.1063
1840005872,Leesburg,VA,Virginia,39.1058,-77.5544
1840011300,Mount Prospect,IL,Illinois,42.0641,-87.9375
1840015112,Pinellas Park,FL,Florida,27.8589,-82.7078
1840007142,Bellevue,NE,Nebraska,41.1535,-95.9357
1840021483,West Sacramento,CA,California,38.5557,-121.5504
1840014093,Apopka,FL,Florida,28.7014,-81.5304
1840019897,Lewiston,ID,Idaho,46.3934,-116.9934
1840000956,Grand Island,NE,Nebraska,40.9214,-98.3584
1840020555,Palm Desert,CA,California,33.7378,-116.3695
1840028605,Milford city ,CT,Connecticut,41.2256,-73.0625
1840002200,Watertown,NY,New York,43.9734,-75.9094
1840020640,Little Elm,TX,Texas,33.1856,-96.929
1840001410,Chambersburg,PA,Pennsylvania,39.9315,-77.6556
1840000457,Revere,MA,Massachusetts,42.4192,-71.0036
1840000414,Peabody,MA,Massachusetts,42.5335,-70.9724
1840022018,Wylie,TX,Texas,33.0362,-96.5161
1840013818,Beaufort,SC,South Carolina,32.4597,-80.7235
1840005825,Aspen Hill,MD,Maryland,39.0928,-77.0823
1840019441,DeSoto,TX,Texas,32.5992,-96.8633
1840019820,Helena,MT,Montana,46.5965,-112.0202
1840007822,Edina,MN,Minnesota,44.8914,-93.3602
1840010166,Wheaton,IL,Illinois,41.8561,-88.1083
1840001035,West New York,NJ,New Jersey,40.7856,-74.0093
1840003599,Hoboken,NJ,New Jersey,40.7453,-74.0279
1840019866,Lacey,WA,Washington,47.046,-122.7934
1840016886,Summerville,SC,South Carolina,33.0015,-80.1799
1840011307,Oak Park,IL,Illinois,41.8872,-87.7899
1840020629,Maricopa,AZ,Arizona,33.0404,-112.0006
1840020468,Lompoc,CA,California,34.6618,-120.4714
1840002930,Kentwood,MI,Michigan,42.8852,-85.5925
1840005408,Levittown,PA,Pennsylvania,40.1537,-74.853
1840022103,Sierra Vista,AZ,Arizona,31.563,-110.3153
1840005270,Levittown,NY,New York,40.7241,-73.5125
1840015524,Madison,AL,Alabama,34.7114,-86.7626
1840017758,Smyrna,TN,Tennessee,35.9722,-86.5253
1840020484,Glendora,CA,California,34.1449,-117.8468
1840018420,Burien,WA,Washington,47.4762,-122.3394
1840001340,Perth Amboy,NJ,New Jersey,40.5203,-74.2724
1840020155,Herriman,UT,Utah,40.4899,-112.0171
1840020349,Farmington,NM,New Mexico,36.7555,-108.1823
1840014591,New Bern,NC,North Carolina,35.0955,-77.0723
1840020583,Placentia,CA,California,33.8807,-117.8553
1840014931,Hinesville,GA,Georgia,31.8247,-81.6135
1840019298,Beaumont,CA,California,33.9076,-116.9766
1840016403,Collierville,TN,Tennessee,35.0471,-89.6988
1840010430,West Lafayette,IN,Indiana,40.4432,-86.9239
1840008586,Florissant,MO,Missouri,38.7996,-90.3269
1840011263,Hoffman Estates,IL,Illinois,42.0639,-88.1468
1840021944,Queen Creek,AZ,Arizona,33.2386,-111.6343
1840019321,Aliso Viejo,CA,California,33.5792,-117.7289
1840014560,Kannapolis,NC,North Carolina,35.4764,-80.6403
1840031195,Methuen Town,MA,Massachusetts,42.734,-71.1889
1840022102,Sahuarita,AZ,Arizona,31.9323,-110.9654
1840003946,Traverse City,MI,Michigan,44.7547,-85.6035
1840005925,Severn,MD,Maryland,39.1355,-76.6958
1840018110,Catalina Foothills,AZ,Arizona,32.3041,-110.8835
1840020970,Galveston,TX,Texas,29.2487,-94.891
1840029029,Country Club,FL,Florida,25.9407,-80.3102
1840014470,Cookeville,TN,Tennessee,36.1484,-85.5114
1840014695,Mishawaka,IN,Indiana,41.6736,-86.1669
1840019211,Rowland Heights,CA,California,33.9716,-117.8911
1840001090,Plainfield,NJ,New Jersey,40.6154,-74.4157
1840019748,Bullhead City,AZ,Arizona,35.1205,-114.546
1840021675,Stillwater,OK,Oklahoma,36.1316,-97.074
1840020734,Forney,TX,Texas,32.744,-96.4529
1840031295,Wheaton,MD,Maryland,39.0492,-77.0572
1840019226,Azusa,CA,California,34.1386,-117.9124
1840031494,North Bethesda,MD,Maryland,39.0393,-77.1191
1840019215,Cerritos,CA,California,33.8677,-118.0686
1840024495,Ashburn,VA,Virginia,39.03,-77.4711
1840000811,Bloomsburg,PA,Pennsylvania,41.0027,-76.4561
1840016482,Morehead City,NC,North Carolina,34.7308,-76.7387
1840015147,Coral Gables,FL,Florida,25.7037,-80.2715
1840020373,Enid,OK,Oklahoma,36.4061,-97.8701
1840000608,Lakewood,OH,Ohio,41.4824,-81.8008
1840020182,Oroville,CA,California,39.4999,-121.5634
1840015383,Wilson,NC,North Carolina,35.7312,-77.9284
1840008434,Lawrence,IN,Indiana,39.8674,-85.9905
1840003183,Portage,MI,Michigan,42.2,-85.5906
1840000053,Minot,ND,North Dakota,48.2375,-101.2781
1840022929,Dunwoody,GA,Georgia,33.9418,-84.3122
1840020624,Poway,CA,California,32.9871,-117.0201
1840021936,San Jacinto,CA,California,33.797,-116.9916
1840003087,Troy,NY,New York,42.7354,-73.6751
1840020295,Newark,CA,California,37.5204,-122.0312
1840000795,Cuyahoga Falls,OH,Ohio,41.1641,-81.5207
1840011404,Downers Grove,IL,Illinois,41.7949,-88.017
1840019424,Bedford,TX,Texas,32.8464,-97.135
1840020320,Reedley,CA,California,36.5987,-119.4473
1840008389,Dublin,OH,Ohio,40.1112,-83.1454
1840023057,Marana,AZ,Arizona,32.4355,-111.1558
1840019327,Cypress,CA,California,33.8171,-118.0386
1840020354,Hollister,CA,California,36.8563,-121.3981
1840020159,Murray,UT,Utah,40.6498,-111.8874
1840020549,Roswell,NM,New Mexico,33.373,-104.5294
1840015018,Pascagoula,MS,Mississippi,30.3665,-88.5507
1840006395,Tuckahoe,VA,Virginia,37.5878,-77.5858
1840018910,Ceres,CA,California,37.5953,-120.9625
1840008935,St. Louis Park,MN,Minnesota,44.9488,-93.3649
1840021016,Rio Grande City,TX,Texas,26.3808,-98.8215
1840018747,Draper,UT,Utah,40.4957,-111.8605
1840020556,Palm Springs,CA,California,33.8017,-116.5382
1840014388,Paducah,KY,Kentucky,37.0711,-88.6436
1840000886,Findlay,OH,Ohio,41.0467,-83.6379
1840073852,University,FL,Florida,28.0771,-82.4335
1840073592,Bel Air South,MD,Maryland,39.5051,-76.3197
1840022490,Antelope,CA,California,38.7153,-121.361
1840020907,Kyle,TX,Texas,29.9937,-97.8859
1840003987,Monroe,MI,Michigan,41.9154,-83.385
1840020231,Lincoln,CA,California,38.8759,-121.2916
1840015098,Ocoee,FL,Florida,28.5787,-81.5338
1840019467,Burleson,TX,Texas,32.517,-97.3343
1840020512,La Mirada,CA,California,33.9025,-118.0093
1840020706,Farmers Branch,TX,Texas,32.9272,-96.8804
1840003101,East Lansing,MI,Michigan,42.748,-84.4835
1840000671,Uniontown,PA,Pennsylvania,39.8994,-79.7244
1840008642,Jeffersonville,IN,Indiana,38.3376,-85.7026
1840015623,Winder,GA,Georgia,33.9917,-83.7218
1840003033,Wauwatosa,WI,Wisconsin,43.0615,-88.0347
1840020213,Littleton,CO,Colorado,39.5915,-105.0188
1840005621,Cumberland,MD,Maryland,39.6515,-78.7585
1840019433,Cedar Hill,TX,Texas,32.581,-96.9591
1840014801,Carrollton,GA,Georgia,33.5817,-85.0837
1840020584,Rancho Santa Margarita,CA,California,33.6318,-117.5989
1840007312,Beavercreek,OH,Ohio,39.731,-84.0624
1840000371,Niagara Falls,NY,New York,43.0921,-79.0147
1840006018,McLean,VA,Virginia,38.9436,-77.1943
1840018841,North Highlands,CA,California,38.6713,-121.3721
1840003288,East Providence,RI,Rhode Island,41.8065,-71.3565
1840017581,Florin,CA,California,38.4832,-121.4042
1840039181,East Honolulu,HI,Hawaii,21.2975,-157.7211
1840007446,Chesterfield,MO,Missouri,38.6588,-90.5804
1840019241,Covina,CA,California,34.0903,-117.8817
1840018419,Bothell,WA,Washington,47.7735,-122.2044
1840011280,Glenview,IL,Illinois,42.0825,-87.8216
1840000539,Mentor,OH,Ohio,41.6895,-81.3361
1840019428,Keller,TX,Texas,32.9337,-97.2255
1840007235,Danville,IL,Illinois,40.1423,-87.6114
1840015386,Spring Hill,TN,Tennessee,35.7438,-86.9116
1840003092,Roseville,MI,Michigan,42.5074,-82.9369
1840008142,Elmhurst,IL,Illinois,41.8973,-87.9432
1840001281,New Philadelphia,OH,Ohio,40.486,-81.4402
1840003433,Sandusky,OH,Ohio,41.4437,-82.7149
1840017565,El Dorado Hills,CA,California,38.675,-121.049
1840001647,Salina,KS,Kansas,38.8137,-97.6143
1840000600,Euclid,OH,Ohio,41.5904,-81.5188
1840021043,Kingman,AZ,Arizona,35.217,-114.0105
1840000425,Everett,MA,Massachusetts,42.4064,-71.0545
1840008686,Farmington,MO,Missouri,37.7821,-90.4288
1840022041,Weatherford,TX,Texas,32.7536,-97.7723
1840004844,Middletown,CT,Connecticut,41.5476,-72.6549
1840020034,Roseburg,OR,Oregon,43.2232,-123.3518
1840013948,Biloxi,MS,Mississippi,30.4422,-88.9512
1840001591,Leavenworth,KS,Kansas,39.3239,-94.924
1840014178,Fort Pierce,FL,Florida,27.4256,-80.3431
1840015965,Winter Garden,FL,Florida,28.5421,-81.5966
1840023058,Oro Valley,AZ,Arizona,32.4208,-110.9768
1840020331,Morgan Hill,CA,California,37.1326,-121.6417
1840005837,Potomac,MD,Maryland,39.0141,-77.1943
1840017852,Pinehurst,NC,North Carolina,35.1922,-79.4684
1840003878,Danville,VA,Virginia,36.5831,-79.4087
1840020717,Rockwall,TX,Texas,32.9169,-96.4377
1840019294,Coachella,CA,California,33.6905,-116.143
1840016199,Wake Forest,NC,North Carolina,35.9629,-78.5141
1840023251,Pearl City,HI,Hawaii,21.4031,-157.9566
1840015561,Tupelo,MS,Mississippi,34.2692,-88.7318
1840000496,Attleboro,MA,Massachusetts,41.9311,-71.295
1840014699,Pine Bluff,AR,Arkansas,34.2116,-92.0178
1840015139,Oakland Park,FL,Florida,26.178,-80.1528
1840008332,Marion,OH,Ohio,40.5933,-83.1237
1840023193,Hilo,HI,Hawaii,19.6886,-155.0864
1840020840,Lufkin,TX,Texas,31.3217,-94.7277
1840017918,Altadena,CA,California,34.1928,-118.1345
1840002213,Manitowoc,WI,Wisconsin,44.0991,-87.6811
1840006099,Lake Ridge,VA,Virginia,38.6843,-77.3059
1840021567,Selma,CA,California,36.5715,-119.6143
1840003415,Strongsville,OH,Ohio,41.3128,-81.8313
1840021532,Danville,CA,California,37.8121,-121.9698
1840009466,Quincy,IL,Illinois,39.9335,-91.3799
1840003781,Lancaster,OH,Ohio,39.7249,-82.6049
1840020157,Riverton,UT,Utah,40.5177,-111.9635
1840022005,The Colony,TX,Texas,33.0925,-96.8977
1840010184,Urbandale,IA,Iowa,41.639,-93.7813
1840011495,Plainfield,IL,Illinois,41.6206,-88.2252
1840011402,Lombard,IL,Illinois,41.8742,-88.0157
1840020436,Prescott,AZ,Arizona,34.585,-112.4475
1840015138,North Lauderdale,FL,Florida,26.2113,-80.2209
1840009558,Eureka,CA,California,40.7942,-124.1568
1840003556,Hackensack,NJ,New Jersey,40.889,-74.0461
1840001332,Sayreville,NJ,New Jersey,40.4656,-74.3237
1840014072,Altamonte Springs,FL,Florida,28.6615,-81.3953
1840019607,Del Rio,TX,Texas,29.3708,-100.88
1840000597,Cleveland Heights,OH,Ohio,41.5112,-81.5636
1840018737,Bountiful,UT,Utah,40.8722,-111.8647
1840019306,Desert Hot Springs,CA,California,33.9551,-116.543
1840029447,Peachtree Corners,GA,Georgia,33.967,-84.2319
1840020698,Haltom City,TX,Texas,32.8176,-97.2707
1840015076,Ormond Beach,FL,Florida,29.296,-81.1003
1840017276,Cutler Bay,FL,Florida,25.5765,-80.3356
1630023656,Trujillo Alto,PR,Puerto Rico,18.3601,-66.0103
1840003226,Adrian,MI,Michigan,41.8994,-84.0446
1840013761,Goose Creek,SC,South Carolina,32.9925,-80.0054
1840007731,Moorhead,MN,Minnesota,46.8673,-96.7461
1840010500,Westfield,IN,Indiana,40.0333,-86.1532
1840002747,Concord,NH,New Hampshire,43.2305,-71.5595
1840006011,Annandale,VA,Virginia,38.8324,-77.196
1840020243,Rohnert Park,CA,California,38.348,-122.6964
1840019323,Brea,CA,California,33.9254,-117.8656
1840020054,Klamath Falls,OR,Oregon,42.2191,-121.7754
1840000410,Salem,MA,Massachusetts,42.5129,-70.902
1840018253,Channelview,TX,Texas,29.7914,-95.1145
1840015155,North Miami Beach,FL,Florida,25.9302,-80.166
1840033834,Whitney,NV,Nevada,36.1005,-115.038
1840005288,Freeport,NY,New York,40.6515,-73.585
1840018471,Centralia,WA,Washington,46.7226,-122.9696
1840013295,Gallatin,TN,Tennessee,36.3782,-86.4696
1840002320,Stevens Point,WI,Wisconsin,44.5241,-89.5508
1840021549,San Bruno,CA,California,37.6254,-122.4313
1840006014,Burke,VA,Virginia,38.7773,-77.2633
1840013381,Brentwood,TN,Tennessee,35.9918,-86.7758
1840014222,North Fort Myers,FL,Florida,26.7243,-81.8491
1840005266,Hicksville,NY,New York,40.7637,-73.5245
1840005109,West Babylon,NY,New York,40.7112,-73.3567
1840037645,Edmonds,WA,Washington,47.8115,-122.3533
1840019365,Apache Junction,AZ,Arizona,33.3985,-111.5351
1840003802,Fairfield,OH,Ohio,39.3301,-84.5409
1840020279,Oakley,CA,California,37.9929,-121.6951
1840001673,Hutchinson,KS,Kansas,38.0671,-97.9081
1840013626,Greenwood,SC,South Carolina,34.1945,-82.1542
1840014176,Richmond,IN,Indiana,39.8318,-84.8905
1840001094,Linden,NJ,New Jersey,40.6251,-74.2381
1840019859,Puyallup,WA,Washington,47.1794,-122.2902
1840019565,Huntsville,TX,Texas,30.705,-95.5544
1840010451,Urbana,IL,Illinois,40.1106,-88.1972
1840000411,Beverly,MA,Massachusetts,42.5681,-70.8627
1840019195,Clovis,NM,New Mexico,34.4376,-103.1923
1840015801,Statesboro,GA,Georgia,32.4376,-81.775
1840020616,Hobbs,NM,New Mexico,32.7282,-103.16
1840019956,McMinnville,OR,Oregon,45.211,-123.1918
1840022213,Schertz,TX,Texas,29.5649,-98.2537
1840019229,Bell Gardens,CA,California,33.9663,-118.155
1840015089,Oviedo,FL,Florida,28.658,-81.1872
1840005912,Odenton,MD,Maryland,39.0661,-76.6939
1840007264,Grove City,OH,Ohio,39.8659,-83.0694
1840018949,Campbell,CA,California,37.2802,-121.9538
1840010717,Wentzville,MO,Missouri,38.8152,-90.8667
1840003290,Woonsocket,RI,Rhode Island,42.001,-71.4993
1840020559,La Quinta,CA,California,33.6536,-116.2785
1840022258,Weslaco,TX,Texas,26.1648,-97.9898
1840001496,Zanesville,OH,Ohio,39.9565,-82.0132
1840014833,Newnan,GA,Georgia,33.3766,-84.7761
1840008955,Shakopee,MN,Minnesota,44.7744,-93.4764
1840018784,Brighton,CO,Colorado,39.9716,-104.7964
1840005679,Catonsville,MD,Maryland,39.2646,-76.7424
1840020508,Rancho Palos Verdes,CA,California,33.7554,-118.3637
1840013690,Mableton,GA,Georgia,33.8132,-84.5656
1840019439,Coppell,TX,Texas,32.9638,-96.9905
1840006100,Linton Hall,VA,Virginia,38.7551,-77.575
1840008181,Moline,IL,Illinois,41.4821,-90.4921
1840007237,Delaware,OH,Ohio,40.2866,-83.0747
1840000463,Westfield,MA,Massachusetts,42.1382,-72.7561
1840004840,Shelton,CT,Connecticut,41.306,-73.1383
1840036057,Greenacres,FL,Florida,26.6272,-80.1371
1840003763,Westerville,OH,Ohio,40.1241,-82.9209
1840003839,Manassas,VA,Virginia,38.7479,-77.4839
1840003601,Kearny,NJ,New Jersey,40.7528,-74.1202
1840020312,Los Banos,CA,California,37.063,-120.8406
1840014341,Richmond,KY,Kentucky,37.7306,-84.2926
1840021398,Spanish Fork,UT,Utah,40.1101,-111.6406
1840007486,Belleville,IL,Illinois,38.5165,-89.99
1840008937,Maplewood,MN,Minnesota,44.9842,-93.0247
1840000777,Wilkes-Barre,PA,Pennsylvania,41.2468,-75.8759
1840002775,Pottsville,PA,Pennsylvania,40.6798,-76.2092
1840014518,Columbia,TN,Tennessee,35.6235,-87.0486
1840011246,Bartlett,IL,Illinois,41.9803,-88.2069
1840006401,Bluefield,WV,West Virginia,37.2608,-81.2143
1840000435,Fitchburg,MA,Massachusetts,42.5912,-71.8156
1840013868,Marion,IN,Indiana,40.5496,-85.66
1840006946,Cedar Falls,IA,Iowa,42.5195,-92.4534
1840010143,Buffalo Grove,IL,Illinois,42.1673,-87.9616
1840000446,Jamestown,NY,New York,42.0975,-79.2366
1840005697,Woodlawn,MD,Maryland,39.3054,-76.7489
1840005767,Clarksburg,WV,West Virginia,39.2863,-80.323
1840018309,Royal Palm Beach,FL,Florida,26.7038,-80.2241
1840008099,Marion,IA,Iowa,42.045,-91.5846
1840014263,Covington,KY,Kentucky,39.0334,-84.5166
1840005032,Coram,NY,New York,40.8813,-73.0059
1840020969,Friendswood,TX,Texas,29.5111,-95.1979
1840016453,Indian Trail,NC,North Carolina,35.0698,-80.6457
1840003124,Woburn,MA,Massachusetts,42.4869,-71.1543
1840026061,The Acreage,FL,Florida,26.7741,-80.2779
1840000465,Holyoke,MA,Massachusetts,42.2125,-72.6411
1840020408,Montclair,CA,California,34.0714,-117.698
1840033724,South Valley,NM,New Mexico,35.0092,-106.6819
1840004770,Torrington,CT,Connecticut,41.8349,-73.1281
1840018895,Cedar City,UT,Utah,37.6834,-113.0956
1840021862,San Gabriel,CA,California,34.0948,-118.099
1840014237,Hallandale Beach,FL,Florida,25.9854,-80.1423
1840006969,Crystal Lake,IL,Illinois,42.2333,-88.3351
1840019379,Calexico,CA,California,32.6849,-115.4944
1840019955,Lake Oswego,OR,Oregon,45.413,-122.7003
1840053454,Amherst,MA,Massachusetts,42.3645,-72.5069
1840020401,Muskogee,OK,Oklahoma,35.7431,-95.3568
1840011489,Romeoville,IL,Illinois,41.6318,-88.0996
1840015115,Plant City,FL,Florida,28.014,-82.1201
1840018581,Keizer,OR,Oregon,45.0029,-123.0241
1840003025,New Berlin,WI,Wisconsin,42.9726,-88.1291
1840000456,Chelsea,MA,Massachusetts,42.3959,-71.0325
1840020513,La Puente,CA,California,34.0323,-117.9533
1840020132,Roy,UT,Utah,41.1715,-112.0485
1840074635,Security-Widefield,CO,Colorado,38.7489,-104.7142
1840000427,Marlborough,MA,Massachusetts,42.3494,-71.5468
1840014738,Milton,GA,Georgia,34.1353,-84.3138
1840018422,Issaquah,WA,Washington,47.544,-122.0471
1840023258,Waipahu,HI,Hawaii,21.3858,-158.0103
1840005675,Essex,MD,Maryland,39.3024,-76.4457
1840018977,Bartlesville,OK,Oklahoma,36.7357,-95.9453
1840020714,Lancaster,TX,Texas,32.5922,-96.7737
1840011328,Streamwood,IL,Illinois,42.0209,-88.1778
1840013473,Germantown,TN,Tennessee,35.0829,-89.7825
1840005928,Annapolis,MD,Maryland,38.9706,-76.5047
1840010169,Carol Stream,IL,Illinois,41.9182,-88.1308
1840013400,Asheboro,NC,North Carolina,35.7158,-79.8129
1840019243,Culver City,CA,California,34.0058,-118.3968
1840018350,Kalispell,MT,Montana,48.2156,-114.3262
1630023566,Arecibo,PR,Puerto Rico,18.4491,-66.7387
1840019788,Lynnwood,WA,Washington,47.8284,-122.3033
1840016215,Mooresville,NC,North Carolina,35.5849,-80.8265
1840003012,Brookfield,WI,Wisconsin,43.064,-88.1231
1840015007,Crestview,FL,Florida,30.748,-86.5784
1840038926,Horizon West,FL,Florida,28.4417,-81.6145
1840005949,Clinton,MD,Maryland,38.7499,-76.9063
1840019817,Moses Lake,WA,Washington,47.128,-119.2761
1840000938,New Castle,PA,Pennsylvania,40.9956,-80.3459
1840014641,Olive Branch,MS,Mississippi,34.961,-89.8469
1840001548,Enterprise,AL,Alabama,31.3276,-85.8459
1840019311,Sun City,AZ,Arizona,33.6165,-112.2819
1840013210,Frankfort,KY,Kentucky,38.1924,-84.8643
1840020192,Northglenn,CO,Colorado,39.9108,-104.9783
1840000652,Warren,OH,Ohio,41.239,-80.8174
1840019442,Duncanville,TX,Texas,32.646,-96.9127
1840019427,Hurst,TX,Texas,32.8353,-97.1808
1840015080,Clermont,FL,Florida,28.5402,-81.7259
1840011334,Wheeling,IL,Illinois,42.1308,-87.924
1840003552,Fort Lee,NJ,New Jersey,40.8509,-73.9712
1840020307,Pacifica,CA,California,37.6112,-122.4781
1840015127,Lake Worth,FL,Florida,26.6196,-80.0591
1840014466,Lebanon,TN,Tennessee,36.204,-86.3481
1840035805,Kendall West,FL,Florida,25.7065,-80.4388
1840014120,Land O' Lakes,FL,Florida,28.2075,-82.4476
1840018757,Eagle Mountain,UT,Utah,40.3137,-112.0114
1840009473,Reynoldsburg,OH,Ohio,39.9587,-82.7944
1840014688,Oxford,MS,Mississippi,34.3627,-89.5336
1840020948,Rosenberg,TX,Texas,29.546,-95.822
1840020278,Martinez,CA,California,37.9985,-122.116
1840020173,Pleasant Grove,UT,Utah,40.3716,-111.7412
1840018023,La Presa,CA,California,32.711,-117.0027
1840005926,Severna Park,MD,Maryland,39.087,-76.5687
1840003782,Huber Heights,OH,Ohio,39.8595,-84.113
1840021966,Stanton,CA,California,33.8002,-117.9935
1840005236,East Meadow,NY,New York,40.7197,-73.5604
1840003020,Menomonee Falls,WI,Wisconsin,43.1487,-88.1227
1840020749,Granbury,TX,Texas,32.4484,-97.7685
1840022083,Waxahachie,TX,Texas,32.4032,-96.8444
1840028790,Valrico,FL,Florida,27.9193,-82.2293
1840019643,Mission Bend,TX,Texas,29.6948,-95.6657
1840016193,Holly Springs,NC,North Carolina,35.653,-78.8397
1840000857,Butler,PA,Pennsylvania,40.8616,-79.8962
1840013599,Albertville,AL,Alabama,34.2634,-86.2107
1840015258,London,KY,Kentucky,37.1175,-84.0767
1840073269,Egypt Lake-Leto,FL,Florida,28.0177,-82.5062
1840006735,Cottage Grove,MN,Minnesota,44.8161,-92.9274
1840023244,Kailua,HI,Hawaii,21.392,-157.7396
1840015888,St. Marys,GA,Georgia,30.7567,-81.5722
1840006340,Mechanicsville,VA,Virginia,37.6262,-77.3561
1840073270,Richmond West,FL,Florida,25.6105,-80.4297
1840019464,Cleburne,TX,Texas,32.357,-97.4152
1840005331,Valley Stream,NY,New York,40.6647,-73.7044
1840011251,Hanover Park,IL,Illinois,41.9819,-88.1447
1840000348,Oswego,NY,New York,43.4516,-76.5005
1840027017,Navarre,FL,Florida,30.4174,-86.8907
1840019954,Oregon City,OR,Oregon,45.3415,-122.5927
1840015959,Winter Springs,FL,Florida,28.6889,-81.2704
1840018453,Parkland,WA,Washington,47.1417,-122.4376
1840018821,Pahrump,NV,Nevada,36.2411,-116.0176
1840010149,Carpentersville,IL,Illinois,42.1227,-88.2895
1840022902,Wildomar,CA,California,33.6173,-117.2582
1840003039,Greenfield,WI,Wisconsin,42.9619,-88.0051
1840132398,Braintree,MA,Massachusetts,42.2039,-71.0022
1840009233,Rock Island,IL,Illinois,41.4699,-90.5827
1840014240,South Miami Heights,FL,Florida,25.5886,-80.3862
1840013095,Evans,GA,Georgia,33.5619,-82.1351
1840001935,West Fargo,ND,North Dakota,46.8573,-96.9057
1840014465,Mount Juliet,TN,Tennessee,36.1991,-86.5114
1840022256,San Juan,TX,Texas,26.1903,-98.152
1840006023,Oakton,VA,Virginia,38.8887,-77.3016
1840013197,Georgetown,KY,Kentucky,38.2249,-84.5482
1840009264,Portage,IN,Indiana,41.5866,-87.1792
1840014243,Aventura,FL,Florida,25.9565,-80.1372
1840020385,Owasso,OK,Oklahoma,36.2882,-95.8328
1840005030,Commack,NY,New York,40.8443,-73.2834
1840009183,Park Ridge,IL,Illinois,42.0125,-87.8436
1840002084,Foley,AL,Alabama,30.3983,-87.6649
1840008662,New Albany,IN,Indiana,38.3089,-85.8234
1840013572,Benton,AR,Arkansas,34.5775,-92.5712
1840014891,Meridian,MS,Mississippi,32.3846,-88.6896
1840007079,Bettendorf,IA,Iowa,41.5656,-90.4764
1840014144,Dunedin,FL,Florida,28.0329,-82.7863
1840007265,Hilliard,OH,Ohio,40.0353,-83.1578
1840014076,Merritt Island,FL,Florida,28.3146,-80.6713
1840006012,Phenix City,AL,Alabama,32.4588,-85.0251
1840010171,Addison,IL,Illinois,41.9314,-88.0085
1840028098,West Hollywood,CA,California,34.0882,-118.3718
1840008939,Roseville,MN,Minnesota,45.0155,-93.1545
1840006121,Oakville,MO,Missouri,38.4472,-90.3199
1840013701,Tucker,GA,Georgia,33.8436,-84.2021
1840020472,Moorpark,CA,California,34.2855,-118.877
1840008930,Richfield,MN,Minnesota,44.8762,-93.2833
1840020498,Monrovia,CA,California,34.165,-117.9921
1840017500,Kearns,UT,Utah,40.652,-112.0093
1840003047,Oak Creek,WI,Wisconsin,42.8803,-87.9009
1840003984,Lincoln Park,MI,Michigan,42.2432,-83.1811
1840019216,Claremont,CA,California,34.1259,-117.7153
1840011508,Oswego,IL,Illinois,41.6834,-88.3372
1840019811,Post Falls,ID,Idaho,47.7213,-116.9385
1840014822,Peachtree City,GA,Georgia,33.3943,-84.5712
1840015145,Lauderdale Lakes,FL,Florida,26.1682,-80.2017
1840075867,French Valley,CA,California,33.5998,-117.1069
1840001646,Portsmouth,OH,Ohio,38.7539,-82.9446
1840021785,Shawnee,OK,Oklahoma,35.3529,-96.965
1840019978,Gillette,WY,Wyoming,44.2752,-105.4983
1840021356,Tooele,UT,Utah,40.5393,-112.3082
1840004086,Prattville,AL,Alabama,32.4605,-86.4588
1840021230,Woodburn,OR,Oregon,45.1473,-122.8603
1840031198,Watertown Town,MA,Massachusetts,42.37,-71.1774
1840007023,Calumet City,IL,Illinois,41.6134,-87.5505
1840021963,San Juan Capistrano,CA,California,33.5009,-117.6544
1840017582,Foothill Farms,CA,California,38.6867,-121.3475
1840005226,Elmont,NY,New York,40.7033,-73.7078
1840003043,Franklin,WI,Wisconsin,42.8854,-88.0104
1840021872,Temple City,CA,California,34.1021,-118.0579
1840015133,Cooper City,FL,Florida,26.0463,-80.2862
1840020562,El Mirage,AZ,Arizona,33.5905,-112.3271
1840029057,Meadow Woods,FL,Florida,28.3698,-81.3467
1840029147,LaGrange,GA,Georgia,33.0274,-85.0384
1840014496,La Vergne,TN,Tennessee,36.0203,-86.5582
1840005581,Middletown,DE,Delaware,39.4453,-75.7166
1840002663,Mount Pleasant,MI,Michigan,43.5966,-84.7759
1840029026,Carrollwood,FL,Florida,28.0577,-82.5149
1840001620,Junction City,KS,Kansas,39.0271,-96.8496
1840007858,Inver Grove Heights,MN,Minnesota,44.8247,-93.0596
1840005948,Chillum,MD,Maryland,38.9667,-76.979
1840014613,Monroe,NC,North Carolina,35.0061,-80.5595
1840005688,Randallstown,MD,Maryland,39.3723,-76.8024
1840019228,Bell,CA,California,33.9801,-118.1798
1840008390,Gahanna,OH,Ohio,40.0251,-82.8637
1840015421,Sanford,NC,North Carolina,35.4874,-79.1772
1840015126,Riviera Beach,FL,Florida,26.7812,-80.0742
1840010746,Wildwood,MO,Missouri,38.5799,-90.6699
1840003762,Upper Arlington,OH,Ohio,40.0272,-83.0704
1840010231,Auburn,CA,California,38.895,-121.0778
1840010579,Plainfield,IN,Indiana,39.6953,-86.3717
1840028408,Westmont,CA,California,33.9417,-118.3018
1840019779,Oak Harbor,WA,Washington,48.2965,-122.6333
1840005836,Olney,MD,Maryland,39.1465,-77.0715
1840020496,Manhattan Beach,CA,California,33.8895,-118.3972
1840004964,New City,NY,New York,41.1543,-73.9909
1840005684,Owings Mills,MD,Maryland,39.4115,-76.7913
1840020932,La Porte,TX,Texas,29.6689,-95.0484
1840020211,Englewood,CO,Colorado,39.6468,-104.9942
1840003485,Brunswick,OH,Ohio,41.2464,-81.8198
1840013661,East Point,GA,Georgia,33.6696,-84.4701
1840015071,DeLand,FL,Florida,29.0224,-81.2873
1840013747,Martinez,GA,Georgia,33.5209,-82.0985
1840020283,Pleasant Hill,CA,California,37.954,-122.0759
1840018842,Orangevale,CA,California,38.6881,-121.2209
1840009261,Merrillville,IN,Indiana,41.4728,-87.3197
1840000803,Stow,OH,Ohio,41.1765,-81.4344
1840028974,Buenaventura Lakes,FL,Florida,28.3349,-81.3539
1840021996,San Luis,AZ,Arizona,32.4911,-114.7089
1840019137,Oildale,CA,California,35.4249,-119.0279
1840013596,Calhoun,GA,Georgia,34.4918,-84.9391
1840001638,Leawood,KS,Kansas,38.9076,-94.6258
1840020305,Menlo Park,CA,California,37.4686,-122.1672
1840002902,Sun Prairie,WI,Wisconsin,43.1827,-89.2358
1840038683,Dakota Ridge,CO,Colorado,39.6192,-105.1344
1840009422,Arcata,CA,California,40.8615,-124.0757
1840000370,Lockport,NY,New York,43.1698,-78.6956
1840019864,Pullman,WA,Washington,46.734,-117.1669
1840005186,Boardman,OH,Ohio,41.0334,-80.6671
1840020820,Nacogdoches,TX,Texas,31.6134,-94.6528
1840000957,Kearney,NE,Nebraska,40.701,-99.0834
1840015673,Vestavia Hills,AL,Alabama,33.4518,-86.7438
1840000645,North Ridgeville,OH,Ohio,41.3851,-82.0194
1840022136,Socorro,TX,Texas,31.6384,-106.2601
1840004675,Randolph,MA,Massachusetts,42.1778,-71.0539
1840003705,Norristown,PA,Pennsylvania,40.1224,-75.3398
1840005834,Montgomery Village,MD,Maryland,39.1783,-77.1957
1840020003,Redmond,OR,Oregon,44.2631,-121.1798
1840021363,Firestone,CO,Colorado,40.1563,-104.9494
1840013733,Goshen,IN,Indiana,41.5743,-85.8308
1840032850,Butte,MT,Montana,45.902,-112.6571
1840014541,Russellville,AR,Arkansas,35.2763,-93.1383
1840020225,Grass Valley,CA,California,39.2237,-121.0521
1840015140,Parkland,FL,Florida,26.3218,-80.2533
1840010739,University City,MO,Missouri,38.6657,-90.3315
1840020158,Midvale,UT,Utah,40.6148,-111.8928
1840029039,Golden Glades,FL,Florida,25.9129,-80.2013
1840031178,Franklin,MA,Massachusetts,42.0862,-71.4113
1840014756,Kennesaw,GA,Georgia,34.026,-84.6177
1840019117,Adelanto,CA,California,34.5815,-117.4397
1840028580,Ken Caryl,CO,Colorado,39.577,-105.1144
1840019444,Carlsbad,NM,New Mexico,32.4011,-104.2389
1840021130,University Place,WA,Washington,47.2147,-122.5461
1840000690,Chester,PA,Pennsylvania,39.8456,-75.3718
1840014804,Douglasville,GA,Georgia,33.7384,-84.7065
1840015384,Salisbury,NC,North Carolina,35.6656,-80.4909
1840020096,Laramie,WY,Wyoming,41.3099,-105.6085
1840019794,Lake Stevens,WA,Washington,48.0028,-122.096
1840020302,Foster City,CA,California,37.5553,-122.2659
1840014674,Valparaiso,IN,Indiana,41.4782,-87.0507
1840008440,Fairborn,OH,Ohio,39.801,-84.0093
1840013129,Estero,FL,Florida,26.4277,-81.7951
1840008467,Mason,OH,Ohio,39.3571,-84.3023
1840018746,Cottonwood Heights,UT,Utah,40.6137,-111.8144
1840029498,Kaneohe,HI,Hawaii,21.4062,-157.7904
1840021490,Sonoma,CA,California,38.2902,-122.4598
1840019231,Beverly Hills,CA,California,34.0786,-118.4021
1840008277,Galesburg,IL,Illinois,40.9506,-90.3763
1840010277,Warsaw,IN,Indiana,41.2448,-85.8464
1840021860,San Dimas,CA,California,34.1082,-117.809
1840011406,Glendale Heights,IL,Illinois,41.9196,-88.0785
1840019328,Dana Point,CA,California,33.4733,-117.6968
1840020757,Midlothian,TX,Texas,32.4668,-96.9892
1840005578,Newark,DE,Delaware,39.6776,-75.7573
1840019403,Alamogordo,NM,New Mexico,32.8837,-105.9624
1840013756,Alabaster,AL,Alabama,33.2198,-86.8225
1840005687,Pikesville,MD,Maryland,39.3893,-76.702
1840024568,Fair Oaks,VA,Virginia,38.8653,-77.3586
1840019621,Deer Park,TX,Texas,29.6898,-95.1151
1840000988,Long Beach,NY,New York,40.5887,-73.666
1840011411,Woodridge,IL,Illinois,41.7368,-88.0408
1840016610,Bridgeton,NJ,New Jersey,39.4286,-75.2281
1840013502,Greer,SC,South Carolina,34.9313,-82.2315
1840021399,Springville,UT,Utah,40.1638,-111.6206
1840021397,Saratoga Springs,UT,Utah,40.3449,-111.9152
1840019538,Copperas Cove,TX,Texas,31.1192,-97.914
1840018756,American Fork,UT,Utah,40.3792,-111.7952
1840003480,Franklin,NJ,New Jersey,41.1101,-74.5886
1840006716,Andover,MN,Minnesota,45.2571,-93.3265
1840016350,Matthews,NC,North Carolina,35.1195,-80.7101
1840015574,Woodstock,GA,Georgia,34.1026,-84.509
1840013161,Florence,KY,Kentucky,38.99,-84.647
1840011304,Northbrook,IL,Illinois,42.1292,-87.8353
1840029096,West Little River,FL,Florida,25.857,-80.2367
1840003548,Fair Lawn,NJ,New Jersey,40.9359,-74.1177
1840009190,St. Charles,IL,Illinois,41.9193,-88.3109
1840005081,Huntington Station,NY,New York,40.8446,-73.405
1840005732,Fairmont,WV,West Virginia,39.4768,-80.1491
1840020417,Ridgecrest,CA,California,35.6308,-117.6621
1840000965,Massillon,OH,Ohio,40.7838,-81.5254
1840018451,Spanaway,WA,Washington,47.0979,-122.4233
1840015713,Starkville,MS,Mississippi,33.4608,-88.8297
1840020851,Harker Heights,TX,Texas,31.0572,-97.6445
1840011271,Elk Grove Village,IL,Illinois,42.0063,-87.9921
1840018738,Kaysville,UT,Utah,41.029,-111.9456
1840020517,Lawndale,CA,California,33.8884,-118.3531
1840022048,Southlake,TX,Texas,32.9545,-97.1503
1840013909,Ferry Pass,FL,Florida,30.5203,-87.1903
1840008957,Savage,MN,Minnesota,44.7544,-93.3631
1840018426,Des Moines,WA,Washington,47.3915,-122.3157
1840001206,Bethel Park,PA,Pennsylvania,40.3239,-80.0364
1840014248,Princeton,FL,Florida,25.5396,-80.3971
1840015135,Dania Beach,FL,Florida,26.0594,-80.1637
1840004986,Spring Valley,NY,New York,41.1151,-74.0486
1840000621,Bowling Green,OH,Ohio,41.3773,-83.65
1840006039,Springfield,VA,Virginia,38.7809,-77.1839
1840028980,East Lake,FL,Florida,28.1205,-82.6868
1840005971,College Park,MD,Maryland,38.996,-76.9337
1840018653,Coos Bay,OR,Oregon,43.3789,-124.233
1840017795,Smithfield,NC,North Carolina,35.5131,-78.3497
1840000349,Rome,NY,New York,43.226,-75.4909
1840018735,Clearfield,UT,Utah,41.103,-112.0237
1840008502,Liberty,MO,Missouri,39.2394,-94.4191
1840002420,Eastpointe,MI,Michigan,42.4657,-82.9461
1840005256,Franklin Square,NY,New York,40.7002,-73.6775
1840009402,Pekin,IL,Illinois,40.5679,-89.6262
1840003420,Westlake,OH,Ohio,41.4524,-81.9295
1840005279,Uniondale,NY,New York,40.7176,-73.5947
1840007369,Chillicothe,OH,Ohio,39.3393,-82.9937
1840020514,La Verne,CA,California,34.1208,-117.7702
1840023306,Juneau,AK,Alaska,58.4546,-134.1739
1840026029,Prairieville,LA,Louisiana,30.3151,-90.9571
1840020238,Placerville,CA,California,38.7308,-120.7978
1840073591,Bel Air North,MD,Maryland,39.5544,-76.3733
1840013706,Redan,GA,Georgia,33.7394,-84.1644
1840001727,Martinsville,VA,Virginia,36.6827,-79.8636
1840018860,Pueblo West,CO,Colorado,38.3551,-104.7266
1840003554,Garfield,NJ,New Jersey,40.8791,-74.1085
1840018019,Fallbrook,CA,California,33.3693,-117.2259
1840019343,Spring Valley,CA,California,32.7316,-116.9766
1840014399,Hopkinsville,KY,Kentucky,36.8386,-87.4776
1840002809,Rochester,NH,New Hampshire,43.299,-70.9787
1840024507,South Riding,VA,Virginia,38.912,-77.5132
1840005026,Centereach,NY,New York,40.8696,-73.0808
1840014857,Milledgeville,GA,Georgia,33.0874,-83.2414
1840021352,Syracuse,UT,Utah,41.086,-112.0698
1840005685,Parkville,MD,Maryland,39.3832,-76.5519
1840015511,Sherwood,AR,Arkansas,34.8508,-92.2028
1840016198,Garner,NC,North Carolina,35.6934,-78.6196
1840015161,Key West,FL,Florida,24.5637,-81.7768
1840017275,Miami Lakes,FL,Florida,25.9125,-80.3214
1840003861,Petersburg,VA,Virginia,37.2043,-77.3913
1840003400,North Olmsted,OH,Ohio,41.415,-81.919
1840023232,Kahului,HI,Hawaii,20.8715,-156.4603
1840021431,Wheat Ridge,CO,Colorado,39.7728,-105.1029
1840013970,Fruit Cove,FL,Florida,30.0972,-81.6176
1840019639,Cibolo,TX,Texas,29.5639,-98.2123
1840000962,Alliance,OH,Ohio,40.9107,-81.1189
1840019297,Banning,CA,California,33.946,-116.8992
1840020588,Laguna Hills,CA,California,33.592,-117.6992
1840005028,Central Islip,NY,New York,40.7837,-73.1945
1840000935,Athens,AL,Alabama,34.7847,-86.951
1840001381,Princeton,NJ,New Jersey,40.3563,-74.6693
1840019183,Orcutt,CA,California,34.8668,-120.4269
1840004849,Naugatuck,CT,Connecticut,41.489,-73.0518
1840005698,Eldersburg,MD,Maryland,39.4041,-76.9529
1840014807,Columbus,MS,Mississippi,33.5088,-88.4096
1840011175,Mundelein,IL,Illinois,42.2691,-88.0101
1840017580,Fair Oaks,CA,California,38.6504,-121.2497
1840021529,San Pablo,CA,California,37.9628,-122.3425
1840020037,Rexburg,ID,Idaho,43.8224,-111.792
1840020823,Nogales,AZ,Arizona,31.3624,-110.9336
1840014330,Nicholasville,KY,Kentucky,37.8902,-84.5669
1840001783,Goleta,CA,California,34.436,-119.8596
1840005210,Opelika,AL,Alabama,32.6612,-85.3769
1840010110,Algonquin,IL,Illinois,42.1629,-88.3159
1840013993,Marrero,LA,Louisiana,29.8871,-90.1127
1840018925,Burlingame,CA,California,37.586,-122.3669
1840013722,Aiken,SC,South Carolina,33.531,-81.7268
1840014745,Lawrenceville,GA,Georgia,33.9523,-83.9931
1840015966,Winter Park,FL,Florida,28.5987,-81.3438
1840029049,Lake Magdalene,FL,Florida,28.0875,-82.4791
1840002905,Fitchburg,WI,Wisconsin,42.9859,-89.4255
1840030079,Granger,IN,Indiana,41.7373,-86.135
1840000961,Wooster,OH,Ohio,40.8171,-81.9335
1840020236,Fountain,CO,Colorado,38.6886,-104.6829
1840004022,Brooklyn Center,MN,Minnesota,45.0681,-93.3162
1840020908,Kerrville,TX,Texas,30.0398,-99.132
1840019118,Barstow,CA,California,34.8661,-117.0472
1840005246,Oceanside,NY,New York,40.6328,-73.6364
1840014703,Canton,GA,Georgia,34.2467,-84.49
1840000367,Auburn,NY,New York,42.9338,-76.5684
1840007091,Crown Point,IN,Indiana,41.4141,-87.3457
1840022401,Windsor,CO,Colorado,40.4693,-104.9213
1840029051,Lakeside,FL,Florida,30.1356,-81.7674
1840000412,Gloucester,MA,Massachusetts,42.626,-70.6897
1840011152,Gurnee,IL,Illinois,42.3708,-87.9392
1840014812,Orangeburg,SC,South Carolina,33.4928,-80.867
1840020156,Holladay,UT,Utah,40.6599,-111.8226
1840016197,Fuquay-Varina,NC,North Carolina,35.5958,-78.7794
1840014775,Chamblee,GA,Georgia,33.8842,-84.3008
1840005678,Carney,MD,Maryland,39.405,-76.5236
1840009273,Peru,IL,Illinois,41.3484,-89.137
1840024508,Sterling,VA,Virginia,39.0052,-77.405
1840016352,Cornelius,NC,North Carolina,35.4725,-80.8801
1840000372,North Tonawanda,NY,New York,43.0457,-78.8659
1840003673,Long Branch,NJ,New Jersey,40.2965,-73.9915
1840021842,Santa Paula,CA,California,34.3521,-119.0698
1840021575,Los Gatos,CA,California,37.2303,-121.956
1840021471,South Lake Tahoe,CA,California,38.9393,-119.9828
1840021550,San Carlos,CA,California,37.4982,-122.268
1840000507,Clinton,IA,Iowa,41.8434,-90.2408
1840021572,Saratoga,CA,California,37.2684,-122.0263
1840020328,Los Altos,CA,California,37.3685,-122.0966
1840007447,Ballwin,MO,Missouri,38.5951,-90.55
1840019126,Atascadero,CA,California,35.4827,-120.6858
1840003402,North Royalton,OH,Ohio,41.3138,-81.7452
1840015257,Somerset,KY,Kentucky,37.0815,-84.6091
1840022214,Seguin,TX,Texas,29.5889,-97.9671
1840027989,Fortuna Foothills,AZ,Arizona,32.6616,-114.3973
1840031493,Milford Mill,MD,Maryland,39.3444,-76.7668
1840005914,Pasadena,MD,Maryland,39.1552,-76.5537
1840015707,Stockbridge,GA,Georgia,33.5253,-84.2294
1840002783,East Liverpool,OH,Ohio,40.6333,-80.5677
1840001091,Rahway,NJ,New Jersey,40.6077,-74.2807
1840002449,Madison Heights,MI,Michigan,42.5073,-83.1034
1840001871,Williston,ND,North Dakota,48.1814,-103.6364
1840005017,Bay Shore,NY,New York,40.7317,-73.2505
1840018642,Eagle,ID,Idaho,43.7223,-116.3862
1840014241,Westchester,FL,Florida,25.7474,-80.3358
1840015380,Maryville,TN,Tennessee,35.7468,-83.9789
1840021875,Walnut,CA,California,34.0334,-117.8593
1840028115,Suisun City,CA,California,38.2473,-122.009
1840001669,Garden City,KS,Kansas,37.9754,-100.8529
1840015708,Texarkana,AR,Arkansas,33.4361,-93.996
1840008256,Kent,OH,Ohio,41.149,-81.361
1840006117,West Falls Church,VA,Virginia,38.8648,-77.1878
1840008086,North Chicago,IL,Illinois,42.3172,-87.8596
1840013759,Greenville,MS,Mississippi,33.385,-91.0514
1840013675,Duluth,GA,Georgia,34.0053,-84.1492
1840018446,Aberdeen,WA,Washington,46.9757,-123.8094
1840010034,Winona,MN,Minnesota,44.0505,-91.6684
1840008632,O'Fallon,IL,Illinois,38.5976,-89.9155
1840027928,Drexel Heights,AZ,Arizona,32.1457,-111.0478
1840021420,Ukiah,CA,California,39.1463,-123.2105
1840018934,Atwater,CA,California,37.3543,-120.5981
1840014228,Golden Gate,FL,Florida,26.1844,-81.7031
1840002672,Sanford,ME,Maine,43.4244,-70.7573
1840006973,Highland Park,IL,Illinois,42.1823,-87.8105
1840001096,Westfield,NJ,New Jersey,40.6515,-74.3433
1840019915,Hermiston,OR,Oregon,45.8323,-119.2858
1840002424,Oak Park,MI,Michigan,42.4649,-83.1824
1840023139,Central,LA,Louisiana,30.5593,-91.0369
1840073826,East Lake-Orient Park,FL,Florida,27.9971,-82.3653
1840007024,Chicago Heights,IL,Illinois,41.5101,-87.6345
1840020301,East Palo Alto,CA,California,37.4671,-122.1352
1840019957,Newberg,OR,Oregon,45.3075,-122.9601
1840006068,Lewes,DE,Delaware,38.7777,-75.1448
1840070236,North Attleborough,MA,Massachusetts,41.9699,-71.3345
1840021561,Washington,UT,Utah,37.1304,-113.4877
1840004941,Port Chester,NY,New York,41.0052,-73.668
1840014473,Oak Ridge,TN,Tennessee,35.9639,-84.2938
1840005909,Crofton,MD,Maryland,39.0144,-76.68
1840007355,Athens,OH,Ohio,39.3269,-82.0988
1840013968,Laplace,LA,Louisiana,30.0731,-90.4758
1840021116,SeaTac,WA,Washington,47.4444,-122.2986
1840009681,Raytown,MO,Missouri,38.9944,-94.4641
1840014474,Paragould,AR,Arkansas,36.0555,-90.5149
1840017365,Graham,WA,Washington,47.0407,-122.2756
1840003964,Southgate,MI,Michigan,42.2047,-83.2057
1840004931,Harrison,NY,New York,41.0233,-73.7192
1840011301,Niles,IL,Illinois,42.0278,-87.8099
1840013929,Fernandina Beach,FL,Florida,30.6579,-81.4504
1840019471,Big Spring,TX,Texas,32.2387,-101.4802
1840015287,Bella Vista,AR,Arkansas,36.4667,-94.2707
1840000845,Milton,PA,Pennsylvania,41.009,-76.8507
1840016195,Morrisville,NC,North Carolina,35.8367,-78.8348
1840020649,Greenville,TX,Texas,33.1116,-96.1098
1840015088,Casselberry,FL,Florida,28.6625,-81.3218
1840000296,Plattsburgh,NY,New York,44.6951,-73.4563
1840021738,Wasco,CA,California,35.5938,-119.3671
1840031498,South Laurel,MD,Maryland,39.0603,-76.8456
1840038864,Fleming Island,FL,Florida,30.0988,-81.7124
1840014206,Belle Glade,FL,Florida,26.692,-80.6672
1840011129,Lake in the Hills,IL,Illinois,42.1913,-88.3476
1840031157,Agawam,MA,Massachusetts,42.0657,-72.6526
1840005097,Shirley,NY,New York,40.7949,-72.8743
1840002945,Burton,MI,Michigan,42.9974,-83.6175
1840000393,Geneva,NY,New York,42.8644,-76.9827
1840010222,Schererville,IN,Indiana,41.486,-87.444
1840014267,Independence,KY,Kentucky,38.951,-84.5492
1840031158,West Springfield,MA,Massachusetts,42.1253,-72.6503
1840005185,Austintown,OH,Ohio,41.0932,-80.7405
1840007164,Burlington,IA,Iowa,40.8072,-91.1247
1840000849,Shamokin,PA,Pennsylvania,40.7883,-76.555
1840015053,New Iberia,LA,Louisiana,30.0049,-91.8202
1840000451,Northampton,MA,Massachusetts,42.3266,-72.6745
1840003546,Englewood,NJ,New Jersey,40.8917,-73.9736
1840018846,Vineyard,CA,California,38.4744,-121.319
1840010515,Zionsville,IN,Indiana,39.9897,-86.3182
1840006394,Short Pump,VA,Virginia,37.6549,-77.6201
1840007022,Burbank,IL,Illinois,41.7444,-87.7686
1840015531,Lumberton,NC,North Carolina,34.6312,-79.0186
1840005686,Perry Hall,MD,Maryland,39.4067,-76.4781
1840002032,Aberdeen,SD,South Dakota,45.4646,-98.468
1840018858,Benicia,CA,California,38.0725,-122.1525
1840039045,Oakleaf Plantation,FL,Florida,30.1689,-81.8337
1840014633,Jacksonville,AR,Arkansas,34.8807,-92.1302
1840033770,Winchester,NV,Nevada,36.1368,-115.1299
1840015095,Rockledge,FL,Florida,28.3201,-80.732
1840014337,Henderson,KY,Kentucky,37.8397,-87.5798
1840020358,Monterey,CA,California,36.5922,-121.8807
1840019655,Converse,TX,Texas,29.5091,-98.3084
1840008565,Granite City,IL,Illinois,38.7292,-90.1266
1840021740,Yukon,OK,Oklahoma,35.5201,-97.7639
1840021511,Sonora,CA,California,37.9819,-120.3828
1840000432,Melrose,MA,Massachusetts,42.4556,-71.059
1840006120,Mehlville,MO,Missouri,38.5018,-90.3149
1840002333,Wisconsin Rapids,WI,Wisconsin,44.3927,-89.8265
1840020247,Galt,CA,California,38.2693,-121.3
1840019573,Hutto,TX,Texas,30.5373,-97.5516
1840019058,Bixby,OK,Oklahoma,35.9454,-95.8773
1840007093,Hobart,IN,Indiana,41.5139,-87.2729
1840005550,Drexel Hill,PA,Pennsylvania,39.9495,-75.3039
1840007813,Oakdale,MN,Minnesota,44.9876,-92.9641
1840000851,Sunbury,PA,Pennsylvania,40.8617,-76.7874
1840074790,Summerlin South,NV,Nevada,36.1242,-115.3324
1840015073,New Smyrna Beach,FL,Florida,29.0249,-80.9651
1840021207,Tualatin,OR,Oregon,45.3772,-122.7746
1840004304,Forest Hills,MI,Michigan,42.9577,-85.4895
1840007798,Fridley,MN,Minnesota,45.0841,-93.2595
1840008193,East Chicago,IN,Indiana,41.6484,-87.4536
1840008598,Kirkwood,MO,Missouri,38.5788,-90.4203
1840021566,Sanger,CA,California,36.699,-119.5575
1840015056,Morgan City,LA,Louisiana,29.7041,-91.192
1840008904,Ramsey,MN,Minnesota,45.2617,-93.4494
1840014878,Ruston,LA,Louisiana,32.5329,-92.6363
1840014311,Jeffersontown,KY,Kentucky,38.2048,-85.5701
1840011405,Glen Ellyn,IL,Illinois,41.8667,-88.0629
1840017887,Isla Vista,CA,California,34.4144,-119.8581
1840018855,Cañon City,CO,Colorado,38.443,-105.2203
1840007795,Monticello,MN,Minnesota,45.298,-93.7984
1840007046,Ashtabula,OH,Ohio,41.8806,-80.7984
1840043023,Temescal Valley,CA,California,33.7581,-117.4677
1840003199,Bridgewater,MA,Massachusetts,41.9728,-70.9749
1840016351,Mint Hill,NC,North Carolina,35.1782,-80.6533
1840023249,Mililani Town,HI,Hawaii,21.4465,-158.0147
1840015358,Statesville,NC,North Carolina,35.7842,-80.8714
1840000375,Gloversville,NY,New York,43.0491,-74.3465
1840008496,Gladstone,MO,Missouri,39.2133,-94.5593
1840005034,Deer Park,NY,New York,40.7623,-73.3219
1840003346,Fremont,NE,Nebraska,41.4396,-96.4879
1840000602,Garfield Heights,OH,Ohio,41.4199,-81.6038
1840019353,Imperial Beach,CA,California,32.5689,-117.1184
1840015506,Seneca,SC,South Carolina,34.6815,-82.9609
1840021999,Florence,AZ,Arizona,33.059,-111.4208
1840014117,Bayonet Point,FL,Florida,28.3254,-82.6834
1840011257,Lansing,IL,Illinois,41.5648,-87.5462
1840001550,Millville,NJ,New Jersey,39.3903,-75.0561
1840003631,Monroeville,PA,Pennsylvania,40.4262,-79.7605
1840021185,St. Helens,OR,Oregon,45.8571,-122.8164
1840000893,Bergenfield,NJ,New Jersey,40.9236,-73.9983
1840028333,Ladera Ranch,CA,California,33.5491,-117.6416
1840014643,Horn Lake,MS,Mississippi,34.9512,-90.0501
1840008956,Prior Lake,MN,Minnesota,44.7251,-93.4409
1840011134,Huntley,IL,Illinois,42.1599,-88.433
1840019828,Maple Valley,WA,Washington,47.3659,-122.0368
1840000970,Easton,PA,Pennsylvania,40.6858,-75.2209
1840008132,Oak Forest,IL,Illinois,41.6054,-87.7527
1840000987,Glen Cove,NY,New York,40.8709,-73.6287
1840000997,Indiana,PA,Pennsylvania,40.622,-79.1552
1840008938,Shoreview,MN,Minnesota,45.0842,-93.1358
1840022484,Windsor,CA,California,38.5417,-122.8086
1840009200,Sterling,IL,Illinois,41.7995,-89.6956
1840001684,Dodge City,KS,Kansas,37.761,-100.0183
1840019430,Colleyville,TX,Texas,32.8913,-97.1486
1840011316,Wilmette,IL,Illinois,42.0771,-87.7282
1840003632,Plum,PA,Pennsylvania,40.5024,-79.7496
1840038102,Mount Pleasant,WI,Wisconsin,42.7129,-87.8875
1840008085,McHenry,IL,Illinois,42.3388,-88.2931
1840000305,Waterville,ME,Maine,44.5441,-69.6624
1840008136,Norfolk,NE,Nebraska,42.0327,-97.4208
1840003412,Shaker Heights,OH,Ohio,41.4744,-81.5496
1840014152,Citrus Park,FL,Florida,28.073,-82.5628
1840005689,Reisterstown,MD,Maryland,39.4552,-76.8144
1840021362,Erie,CO,Colorado,40.0403,-105.0398
1840009536,Brownsburg,IN,Indiana,39.833,-86.3824
1840006760,Chaska,MN,Minnesota,44.8164,-93.6092
1840024482,Ilchester,MD,Maryland,39.2187,-76.7684
1840015426,Shelby,NC,North Carolina,35.2904,-81.5451
1840020497,Maywood,CA,California,33.9885,-118.1877
1840008591,Maryland Heights,MO,Missouri,38.7189,-90.4749
1840017499,Magna,UT,Utah,40.7634,-112.1599
1840003790,Xenia,OH,Ohio,39.6828,-83.9414
1840018924,Belmont,CA,California,37.5154,-122.2955
1840003967,Allen Park,MI,Michigan,42.2595,-83.2107
1840000380,Mason City,IA,Iowa,43.1487,-93.1998
1840011493,New Lenox,IL,Illinois,41.5097,-87.97
1840014256,Hanahan,SC,South Carolina,32.9302,-80.0027
1840014585,Kinston,NC,North Carolina,35.2748,-77.5936
1840015429,Searcy,AR,Arkansas,35.2418,-91.7351
1840004827,New London,CT,Connecticut,41.3502,-72.1023
1840005111,West Islip,NY,New York,40.7097,-73.2971
1840010165,West Chicago,IL,Illinois,41.896,-88.2253
1840004872,Kiryas Joel,NY,New York,41.3406,-74.166
1840020621,Lemon Grove,CA,California,32.7331,-117.0344
1840005122,Lindenhurst,NY,New York,40.6858,-73.371
1840015706,McDonough,GA,Georgia,33.4399,-84.1509
1840021218,West Linn,OR,Oregon,45.3669,-122.6399
1840000419,Cortland,NY,New York,42.6004,-76.1784
1840020383,Lemoore,CA,California,36.2949,-119.7983
1840019671,Alvin,TX,Texas,29.3871,-95.2933
1840001415,Waynesboro,PA,Pennsylvania,39.7525,-77.5822
1840008112,Marshalltown,IA,Iowa,42.0341,-92.9067
1840002192,Lebanon,NH,New Hampshire,43.6353,-72.2531
1840074745,West Whittier-Los Nietos,CA,California,33.9759,-118.0689
1840014245,Leisure City,FL,Florida,25.4937,-80.4369
1840015361,Thomasville,NC,North Carolina,35.8813,-80.0807
1840015983,Temple Terrace,FL,Florida,28.0437,-82.3774
1840020284,Lafayette,CA,California,37.8919,-122.1189
1840029013,University Park,FL,Florida,25.7469,-80.3684
1840020554,Norco,CA,California,33.9252,-117.5499
1840014230,Immokalee,FL,Florida,26.4253,-81.4251
1840011181,Vernon Hills,IL,Illinois,42.234,-87.9608
1840014888,Pearl,MS,Mississippi,32.273,-90.0918
1840034671,Bethany,OR,Oregon,45.5613,-122.8369
1840003923,Marquette,MI,Michigan,46.544,-87.4082
1840009724,Sedalia,MO,Missouri,38.7042,-93.2351
1840013732,Bessemer,AL,Alabama,33.3709,-86.9713
1840005250,Plainview,NY,New York,40.7832,-73.4732
1840007035,Batavia,IL,Illinois,41.8479,-88.311
1840003974,Garden City,MI,Michigan,42.3244,-83.3412
1840006759,Chanhassen,MN,Minnesota,44.8544,-93.5621
1840013530,Cabot,AR,Arkansas,34.9768,-92.0274
1840015802,Vicksburg,MS,Mississippi,32.3173,-90.8868
1840019378,Brawley,CA,California,32.9783,-115.5287
1840002244,Neenah,WI,Wisconsin,44.167,-88.4764
1840021119,Snoqualmie,WA,Washington,47.5293,-121.8412
1840010508,Troy,OH,Ohio,40.0436,-84.2191
1840020276,Hercules,CA,California,38.0064,-122.2564
1840015029,Lake City,FL,Florida,30.1901,-82.647
1840000916,Paramus,NJ,New Jersey,40.9455,-74.0712
1840015118,Okeechobee,FL,Florida,27.2414,-80.8298
1840021635,Soledad,CA,California,36.4432,-121.3426
1840008202,Muscatine,IA,Iowa,41.4196,-91.068
1840015310,Boone,NC,North Carolina,36.2111,-81.6668
1840019868,Moscow,ID,Idaho,46.7307,-116.9986
1840003537,Cliffside Park,NJ,New Jersey,40.8221,-73.988
1840015984,Sebastian,FL,Florida,27.7882,-80.4813
1840014819,Northport,AL,Alabama,33.2589,-87.5984
1840014951,Natchez,MS,Mississippi,31.5437,-91.3867
1840015216,Winchester,KY,Kentucky,38.0017,-84.1907
1840021729,Twentynine Palms,CA,California,34.1478,-116.0659
1840004501,Holt,MI,Michigan,42.6416,-84.5307
1840008629,East St. Louis,IL,Illinois,38.6156,-90.1304
1840020712,Sachse,TX,Texas,32.9726,-96.5793
1840020594,Paris,TX,Texas,33.6688,-95.546
1840014136,Haines City,FL,Florida,28.11,-81.6157
1840006440,Cave Spring,VA,Virginia,37.2254,-80.0073
1840038034,Superior,WI,Wisconsin,46.6941,-92.0823
1840037100,West Odessa,TX,Texas,31.8388,-102.4996
1840003486,Medina,OH,Ohio,41.1358,-81.8694
1840014716,Conway,SC,South Carolina,33.8399,-79.0424
1840000792,Barberton,OH,Ohio,41.0094,-81.6038
1840020348,Española,NM,New Mexico,36.0041,-106.0669
1840005035,Dix Hills,NY,New York,40.8035,-73.337
1840020101,Rock Springs,WY,Wyoming,41.5951,-109.2238
1840019830,Mercer Island,WA,Washington,47.5661,-122.232
1840074861,Heber,UT,Utah,40.5068,-111.3984
1840010005,White Bear Lake,MN,Minnesota,45.0657,-93.015
1840014945,Laurel,MS,Mississippi,31.6956,-89.1448
1840005078,Holbrook,NY,New York,40.7944,-73.0707
1840028316,Bay Point,CA,California,38.0329,-121.9614
1840010107,Woodstock,IL,Illinois,42.3096,-88.4352
1840005694,Lochearn,MD,Maryland,39.346,-76.7307
1840008254,Green,OH,Ohio,40.9483,-81.4757
1840018248,Cloverleaf,TX,Texas,29.7882,-95.1724
1840008983,Owatonna,MN,Minnesota,44.0914,-93.2304
1840014777,Decatur,GA,Georgia,33.7711,-84.2968
1840014914,Pooler,GA,Georgia,32.1043,-81.2568
1840015782,Madison,MS,Mississippi,32.4738,-90.13
1840014630,Lancaster,SC,South Carolina,34.7247,-80.7801
1840029577,Ewa Gentry,HI,Hawaii,21.3344,-158.0262
1840005976,Laurel,MD,Maryland,39.095,-76.8622
1840006830,Austin,MN,Minnesota,43.6718,-92.9783
1840009256,Lockport,IL,Illinois,41.5904,-88.0292
1840008460,Franklin,IN,Indiana,39.4938,-86.0546
1840021386,South Salt Lake,UT,Utah,40.7056,-111.8986
1840015980,Tarpon Springs,FL,Florida,28.1493,-82.7623
1840005661,Edgewood,MD,Maryland,39.421,-76.2968
1840018912,San Lorenzo,CA,California,37.6737,-122.1349
1840015799,Bluffton,SC,South Carolina,32.2135,-80.9316
1840015359,Sevierville,TN,Tennessee,35.8873,-83.5677
1840019930,Forest Grove,OR,Oregon,45.5244,-123.1101
1840019312,Sun City West,AZ,Arizona,33.6693,-112.3575
1840000328,South Portland,ME,Maine,43.631,-70.2895
1840014159,Ruskin,FL,Florida,27.7065,-82.4209
1840019317,Denison,TX,Texas,33.7672,-96.5807
1840020275,El Cerrito,CA,California,37.9197,-122.3025
1840028914,Keystone,FL,Florida,28.1312,-82.5999
1840029028,Coral Terrace,FL,Florida,25.7464,-80.3049
1840019049,Claremore,OK,Oklahoma,36.3143,-95.6099
1840014794,Homewood,AL,Alabama,33.4617,-86.8092
1840020142,Farmington,UT,Utah,40.9846,-111.9065
1840135257,Columbine,CO,Colorado,39.5879,-105.0694
1840021871,South Pasadena,CA,California,34.1103,-118.1573
1840018260,Canyon Lake,TX,Texas,29.8761,-98.2611
1840021013,Kingsville,TX,Texas,27.5094,-97.8611
1840016320,Forest City,NC,North Carolina,35.3338,-81.8702
1840001719,Salem,VA,Virginia,37.2864,-80.0555
1840018409,Bainbridge Island,WA,Washington,47.6439,-122.5434
1840010091,Caledonia,WI,Wisconsin,42.7986,-87.8762
1840006746,Champlin,MN,Minnesota,45.1702,-93.3903
1840008564,Edwardsville,IL,Illinois,38.7923,-89.9877
1840029076,South Bradenton,FL,Florida,27.4612,-82.5821
1840001593,Fairland,MD,Maryland,39.0804,-76.9527
1840018308,Palm Springs,FL,Florida,26.6349,-80.0968
1840007794,Elk River,MN,Minnesota,45.3314,-93.567
1840008951,Rosemount,MN,Minnesota,44.7465,-93.0662
1840021945,Fountain Hills,AZ,Arizona,33.6073,-111.7398
1840006971,Belvidere,IL,Illinois,42.2544,-88.8649
1840012490,Riverside,OH,Ohio,39.7836,-84.1219
1840005682,Middle River,MD,Maryland,39.3345,-76.4318
1840003023,Muskego,WI,Wisconsin,42.886,-88.1291
1630035506,Levittown,PR,Puerto Rico,18.4454,-66.1759
1840007453,Hazelwood,MO,Missouri,38.7931,-90.3899
1840009197,Scottsbluff,NE,Nebraska,41.8684,-103.6616
1840018266,Fresno,TX,Texas,29.5358,-95.4696
1840000899,Ridgewood,NJ,New Jersey,40.9822,-74.1128
1840022726,Yucca Valley,CA,California,34.1234,-116.4216
1840007659,Branson,MO,Missouri,36.651,-93.2635
1840019435,Balch Springs,TX,Texas,32.7194,-96.6151
1840022055,University Park,TX,Texas,32.8506,-96.7937
1840019651,Timberwood Park,TX,Texas,29.6994,-98.4838
1840002348,De Pere,WI,Wisconsin,44.4309,-88.0785
1840013647,Socastee,SC,South Carolina,33.6871,-79.0086
1840013990,Terrytown,LA,Louisiana,29.9014,-90.0279
1630035668,Fajardo,PR,Puerto Rico,18.333,-65.6592
1840008355,Marysville,OH,Ohio,40.2278,-83.3595
1840007569,Derby,KS,Kansas,37.5571,-97.2552
1840021219,Wilsonville,OR,Oregon,45.3107,-122.7705
1840016290,Clayton,NC,North Carolina,35.6591,-78.4499
1840002506,Brookings,SD,South Dakota,44.3022,-96.7859
1840020286,Riverbank,CA,California,37.7268,-120.9402
1840031495,North Laurel,MD,Maryland,39.1286,-76.8476
1840002925,Walker,MI,Michigan,42.9853,-85.7446
1840001849,Wyandotte,MI,Michigan,42.2113,-83.1558
1840008532,Grandview,MO,Missouri,38.8802,-94.5227
1840007808,Forest Lake,MN,Minnesota,45.2536,-92.9583
1840006151,Chesapeake Beach,MD,Maryland,38.6881,-76.5448
1840014192,Palm City,FL,Florida,27.1736,-80.2861
1840002135,Hudson,WI,Wisconsin,44.9637,-92.7316
1840005830,Clarksburg,MD,Maryland,39.2314,-77.2617
1840013564,South Elgin,IL,Illinois,41.9906,-88.3134
1840002436,Auburn Hills,MI,Michigan,42.6735,-83.2447
1840005228,Baldwin,NY,New York,40.6634,-73.6104
1840019319,North Tustin,CA,California,33.7644,-117.7945
1840020002,Ontario,OR,Oregon,44.0259,-116.9759
1840011296,Melrose Park,IL,Illinois,41.9029,-87.8642
1840019258,Ardmore,OK,Oklahoma,34.1944,-97.1253
1840001130,Hastings,NE,Nebraska,40.5963,-98.3914
1840002491,Burlington,WI,Wisconsin,42.6746,-88.2723
1840002873,Norton Shores,MI,Michigan,43.1621,-86.2519
1840016123,Kernersville,NC,North Carolina,36.1066,-80.0844
1840015615,Sugar Hill,GA,Georgia,34.1081,-84.056
1840006037,Herndon,VA,Virginia,38.9699,-77.3867
1840001652,Emporia,KS,Kansas,38.4028,-96.1924
1840022019,Prosper,TX,Texas,33.2394,-96.8087
1840005320,Rockville Centre,NY,New York,40.6644,-73.6383
1840018335,Palmetto Bay,FL,Florida,25.622,-80.3221
1840031466,Suitland,MD,Maryland,38.8492,-76.9225
1840005375,Somerset,NJ,New Jersey,40.5083,-74.501
1840000642,Avon Lake,OH,Ohio,41.4945,-82.016
1840020266,Lathrop,CA,California,37.809,-121.3131
1840020406,Loma Linda,CA,California,34.0451,-117.2498
1840022049,Watauga,TX,Texas,32.8718,-97.2515
1840011483,Homer Glen,IL,Illinois,41.6044,-87.9497
1840015863,Tifton,GA,Georgia,31.4625,-83.5205
1840019044,Dinuba,CA,California,36.5453,-119.3987
1840014150,Bloomingdale,FL,Florida,27.8784,-82.2624
1840011414,Westmont,IL,Illinois,41.7948,-87.9742
